location_id,name,latitude,longitude,num_reviews,rating,neighborhoods,address_obj,address
19108676,Peppermint,30.018853999999997,31.466276,3,5,al-qahirah al jadidah,"{'street1': 'El Teseen Street', 'street2': 'Dyar Mall, Infront of Gate 1 Tolipe El Narges Hotel', 'city': 'Cairo', 'state': None, 'country': 'Egypt', 'postalcode': '11511'}","El Teseen Street Dyar Mall, Infront of Gate 1 Tolipe El Narges Hotel, Cairo 11511 Egypt"
2602748,The Blue Restaurant & Grill,30.038889,31.230465000000002,727,5,qasr el nile,"{'street1': '12 Ahmed Ragheb Street', 'street2': 'Garden City', 'city': 'Cairo', 'state': None, 'country': 'Egypt', 'postalcode': '11519'}","12 Ahmed Ragheb Street Garden City, Cairo 11519 Egypt"
11768815,Vivo Restaurant,30.045896999999997,31.232033,428,5,qasr el nile,"{'street1': '1113 Corniche El Nil Street', 'street2': 'Second floor', 'city': 'Cairo', 'state': None, 'country': 'Egypt', 'postalcode': '11221'}","1113 Corniche El Nil Street Second floor, Cairo 11221 Egypt"
8734329,Culina,30.04662,31.231953000000004,302,5,qasr el nile,"{'street1': '1113 Corniche El Nil Street', 'street2': 'The Nile Ritz-Carlton, Downtown', 'city': 'Cairo', 'state': None, 'country': 'Egypt', 'postalcode': '11221'}","1113 Corniche El Nil Street The Nile Ritz-Carlton, Downtown, Cairo 11221 Egypt"
3333673,Noble House,30.1061,31.365522,270,5,an-nuzhah,"{'street1': 'Hilton Cairo Heliopolis', 'street2': 'Uruba Street, Heliopolis', 'city': 'Cairo', 'state': None, 'country': 'Egypt', 'postalcode': '11511'}","Hilton Cairo Heliopolis Uruba Street, Heliopolis, Cairo 11511 Egypt"
14774406,Scores Sports Bar & Restaurant,29.960701,31.247954999999997,96,5,maadi,"{'street1': '29 Corniche El Nil', 'street2': 'Holiday Inn Cairo, Maadi', 'city': 'Cairo', 'state': None, 'country': 'Egypt', 'postalcode': '11511'}","29 Corniche El Nil Holiday Inn Cairo, Maadi, Cairo 11511 Egypt"
3333665,Raj,30.106841999999997,31.365349,241,5,an-nuzhah,"{'street1': 'Hilton Cairo Heliopolis', 'street2': 'Al Orouba Street ,', 'city': 'Cairo', 'state': None, 'country': 'Egypt', 'postalcode': '11511'}","Hilton Cairo Heliopolis Al Orouba Street ,, Cairo 11511 Egypt"
2619464,Fayruz Lebanese Restaurant,30.072423999999998,31.346268,1199,5,Madinat Nasr 1 ,"{'street1': 'InterContinental Cairo Citystars', 'street2': 'Omar Ibn El Khattab St., Heliopolis', 'city': 'Cairo', 'state': None, 'country': 'Egypt', 'postalcode': '11511'}","InterContinental Cairo Citystars Omar Ibn El Khattab St., Heliopolis, Cairo 11511 Egypt"
2715802,Al Khal Egyptian Restaurant,30.072495,31.3464,548,5,Madinat Nasr 1 ,"{'street1': 'InterContinental Cairo Citystars', 'street2': 'Omar Bin Khattab Street', 'city': 'Cairo', 'state': None, 'country': 'Egypt', 'postalcode': '11511'}","InterContinental Cairo Citystars Omar Bin Khattab Street, Cairo 11511 Egypt"
2326095,Osmanly Restaurant,30.038636999999998,31.230491999999998,443,4.5,qasr el nile,"{'street1': '12 Ahmed Ragheb Street', 'street2': 'Garden City', 'city': 'Cairo', 'state': None, 'country': 'Egypt', 'postalcode': '11519'}","12 Ahmed Ragheb Street Garden City, Cairo 11519 Egypt"
7681557,Sachi,30.087976,31.324840000000002,705,5,Heliopolis,"{'street1': '3 Cleopatra Street', 'street2': 'Heliopolis', 'city': 'Cairo', 'state': None, 'country': 'Egypt', 'postalcode': '11511'}","3 Cleopatra Street Heliopolis, Cairo 11511 Egypt"
10210903,Bab Al Qasr,30.059953999999998,31.418976,430,5,al-qahirah al jadidah 2,"{'street1': 'Royal Maxim Palace Kempinski Hotel, First Settlement, New Cairo', 'street2': 'First Settlement, New Cairo', 'city': 'Cairo', 'state': None, 'country': 'Egypt', 'postalcode': '11477'}","Royal Maxim Palace Kempinski Hotel, First Settlement, New Cairo First Settlement, New Cairo, Cairo 11477 Egypt"
2165744,Shogun Japanese Restaurant,30.072426,31.346355,719,5,Madinat Nasr 1 ,"{'street1': 'Omar Ibn EL Khattab St. Heliopolis', 'street2': 'InterContinental Cairo Citystars ', 'city': 'Cairo', 'state': None, 'country': 'Egypt', 'postalcode': '11511'}","Omar Ibn EL Khattab St. Heliopolis InterContinental Cairo Citystars, Cairo 11511 Egypt"
3329954,Pizza Bar,30.107491999999997,31.36618,185,5,an-nuzhah,"{'street1': 'El Saheed Sayed Zakaria Street', 'street2': 'Heliopolis Towers', 'city': 'Cairo', 'state': None, 'country': 'Egypt', 'postalcode': '11511'}","El Saheed Sayed Zakaria Street Heliopolis Towers, Cairo 11511 Egypt"
9729486,Kazoku,30.061186,31.43716,399,5,al-qahirah al jadidah 2,"{'street1': 'Swan Lake Compound club house', 'street2': 'Swan Lake Compound, 1st Settlement, New Cairo', 'city': 'Cairo', 'state': None, 'country': 'Egypt', 'postalcode': '11511'}","Swan Lake Compound club house Swan Lake Compound, 1st Settlement, New Cairo, Cairo 11511 Egypt"
2451793,AL Dabke,30.106422,31.364853000000004,220,4.5,an-nuzhah,"{'street1': 'Hilton Cairo Heliopolis', 'street2': 'Uruba Street, Heliopolis', 'city': 'Cairo', 'state': None, 'country': 'Egypt', 'postalcode': '11511'}","Hilton Cairo Heliopolis Uruba Street, Heliopolis, Cairo 11511 Egypt"
15656334,Nisantasi,30.0736,31.346338,134,5,Madinat Nasr 1 ,"{'street1': 'City Stars Mall', 'street2': 'Phase 1, Level 5', 'city': 'Cairo', 'state': None, 'country': 'Egypt', 'postalcode': '11511'}","City Stars Mall Phase 1, Level 5, Cairo 11511 Egypt"
2629578,Esplanade Cafe Restaurant,30.072405,31.346289000000002,341,5,Madinat Nasr 1 ,"{'street1': 'InterContinental Cairo Citystars', 'street2': 'Omar Ibn El Khattab St.', 'city': 'Cairo', 'state': None, 'country': 'Egypt', 'postalcode': '11511'}","InterContinental Cairo Citystars Omar Ibn El Khattab St., Cairo 11511 Egypt"
2608254,Maestro Italian Restaurant,30.072426,31.346476000000003,539,5,Madinat Nasr 1 ,"{'street1': 'InterContinental Cairo Citystars', 'street2': 'Omar Ibn El Khattab St. Heliopolis', 'city': 'Cairo', 'state': None, 'country': 'Egypt', 'postalcode': '11511'}","InterContinental Cairo Citystars Omar Ibn El Khattab St. Heliopolis, Cairo 11511 Egypt"
15656944,LEXIE'S,30.024082,31.454159000000004,189,5,al-qahirah al jadidah,"{'street1': 'El-Tessen Street', 'street2': None, 'city': 'Cairo', 'state': None, 'country': 'Egypt', 'postalcode': '11511'}","El-Tessen Street, Cairo 11511 Egypt"
8754718,Bab El-Sharq,30.046337,31.233053,341,4.5,qasr el nile,"{'street1': '1113 Corniche El Nil', 'street2': None, 'city': 'Cairo', 'state': None, 'country': 'Egypt', 'postalcode': '11221'}","1113 Corniche El Nil, Cairo 11221 Egypt"
14797583,The View Restaurant,29.960693,31.247877000000003,130,5,maadi,"{'street1': '29A Cornish El Nil Maadi', 'street2': None, 'city': 'Cairo', 'state': None, 'country': 'Egypt', 'postalcode': '11511'}","29A Cornish El Nil Maadi, Cairo 11511 Egypt"
14138065,L'Uliveto Italian Restaurant,30.071943,31.227486,197,5,rud el farag,"{'street1': 'Nile City Towers- 2005 B Corniche El Nil', 'street2': None, 'city': 'Cairo', 'state': None, 'country': 'Egypt', 'postalcode': '11311'}","Nile City Towers- 2005 B Corniche El Nil, Cairo 11311 Egypt"
2700922,Sushiramis,30.043090000000003,31.231901,175,5,qasr el nile,"{'street1': 'InterContinental Cairo Semiramis Hotel', 'street2': 'Corniche El Nil', 'city': 'Cairo', 'state': None, 'country': 'Egypt', 'postalcode': '11511'}","InterContinental Cairo Semiramis Hotel Corniche El Nil, Cairo 11511 Egypt"
3175542,Indira Indian Restaurant,30.073973,31.344016999999997,1385,5,Madinat Nasr 1 ,"{'street1': 'Holiday Inn Cairo Citystars', 'street2': 'Ali Rashed Street', 'city': 'Cairo', 'state': None, 'country': 'Egypt', 'postalcode': '11511'}","Holiday Inn Cairo Citystars Ali Rashed Street, Cairo 11511 Egypt"
3333671,MARIA'S,30.107712,31.366545000000002,136,5,an-nuzhah,"{'street1': 'Hilton Cairo Heliopolis', 'street2': 'El Orouba Street, Heliopolis', 'city': 'Cairo', 'state': None, 'country': 'Egypt', 'postalcode': '11511'}","Hilton Cairo Heliopolis El Orouba Street, Heliopolis, Cairo 11511 Egypt"
3329940,Leonardo Ristorante,30.106632,31.365007000000002,127,4.5,an-nuzhah,"{'street1': 'Hilton Cairo Heliopolis', 'street2': 'Al Orouba Street, Heliopolis', 'city': 'Cairo', 'state': None, 'country': 'Egypt', 'postalcode': '11511'}","Hilton Cairo Heliopolis Al Orouba Street, Heliopolis, Cairo 11511 Egypt"
2700915,The Grill Restaurant & Lounge,30.04322,31.232008,357,5,qasr el nile,"{'street1': 'InterContinental Cairo Semiramis', 'street2': 'Corniche El Nile Downtown', 'city': 'Cairo', 'state': None, 'country': 'Egypt', 'postalcode': '11511'}","InterContinental Cairo Semiramis Corniche El Nile Downtown, Cairo 11511 Egypt"
2002786,Saigon Restaurant & Lounge,30.071648,31.227320000000002,267,4.5,rud el farag,"{'street1': '2005 B, Corniche El Nil', 'street2': 'Fairmont Towers Nile City - 2005 B, Corniche El Nil, Ramlet Beaulac', 'city': 'Cairo', 'state': None, 'country': 'Egypt', 'postalcode': '2466'}","2005 B, Corniche El Nil Fairmont Towers Nile City - 2005 B, Corniche El Nil, Ramlet Beaulac, Cairo 2466 Egypt"
9597390,O's Pasta,30.059488,31.224052,193,4.5,Zamalek,"{'street1': '159 26th of July Street', 'street2': 'Zamalek', 'city': 'Cairo', 'state': None, 'country': 'Egypt', 'postalcode': '11511'}","159 26th of July Street Zamalek, Cairo 11511 Egypt"
16673698,My Kind of Place,30.106142,31.36471,90,5,an-nuzhah,"{'street1': 'Uruba Street', 'street2': None, 'city': 'Cairo', 'state': None, 'country': 'Egypt', 'postalcode': None}","Uruba Street, Cairo Egypt"
9712525,Kamala at Conrad Cairo,30.065456,31.227696999999996,136,4.5,al-qahirah al jadidah 2,"{'street1': '1191 Corniche El Nil', 'street2': None, 'city': 'Cairo', 'state': None, 'country': 'Egypt', 'postalcode': '11511'}","1191 Corniche El Nil, Cairo 11511 Egypt"
2515857,Windows Restaurant,30.074064,31.343586,216,4.5,Madinat Nasr 1 ,"{'street1': 'Holiday Inn Cairo Citystars', 'street2': 'Aly Rashed St. Off Omar Ibn El Khattab St., Heliopolis', 'city': 'Cairo', 'state': None, 'country': 'Egypt', 'postalcode': '11511'}","Holiday Inn Cairo Citystars Aly Rashed St. Off Omar Ibn El Khattab St., Heliopolis, Cairo 11511 Egypt"
1025515,Birdcage,30.053083,31.230413000000002,921,4.5,bulaq,"{'street1': 'Corniche El Nil', 'street2': 'Semiramis InterContinental Cairo', 'city': 'Cairo', 'state': None, 'country': 'Egypt', 'postalcode': '11511'}","Corniche El Nil Semiramis InterContinental Cairo, Cairo 11511 Egypt"
10210760,Romanov,30.06035,31.418812,134,4.5,al-qahirah al jadidah 2,"{'street1': 'Royal Maxim Palace Kempinski Hotel', 'street2': 'First Settlement, New Cairo', 'city': 'Cairo', 'state': None, 'country': 'Egypt', 'postalcode': '11511'}","Royal Maxim Palace Kempinski Hotel First Settlement, New Cairo, Cairo 11511 Egypt"
16827849,ZEN Cafe & Lounge,29.960835999999997,31.247982,61,5,maadi,"{'street1': 'Holiday Inn Cairo Maadi, 29 Corniche El Nil', 'street2': None, 'city': 'Cairo', 'state': None, 'country': 'Egypt', 'postalcode': '11511'}","Holiday Inn Cairo Maadi, 29 Corniche El Nil, Cairo 11511 Egypt"
17461437,Fuze Bar,30.107653000000003,31.366467999999998,58,5,an-nuzhah,"{'street1': 'El Saheed Sayed Zakaria Street', 'street2': 'El- Orouba street', 'city': 'Cairo', 'state': None, 'country': 'Egypt', 'postalcode': '24666'}","El Saheed Sayed Zakaria Street El- Orouba street, Cairo 24666 Egypt"
4191777,The Smokery,29.992528999999998,31.414337,249,4.5,al-qahirah al jadidah 3,"{'street1': 'Katameya Heights', 'street2': 'New Cairo - 5th District', 'city': 'Cairo', 'state': None, 'country': 'Egypt', 'postalcode': '11511'}","Katameya Heights New Cairo - 5th District, Cairo 11511 Egypt"
1027608,Sabaya,30.04356,31.231977,659,4.5,qasr el nile,"{'street1': 'Corniche El Nil', 'street2': 'Semiramis InterContinental Cairo', 'city': 'Cairo', 'state': None, 'country': 'Egypt', 'postalcode': '11511'}","Corniche El Nil Semiramis InterContinental Cairo, Cairo 11511 Egypt"
3333675,Aqua e Luce,30.107407000000002,31.36627,94,5,an-nuzhah,"{'street1': 'Heliopolis Towers', 'street2': 'Uruba Street, Heliopolis', 'city': 'Cairo', 'state': None, 'country': 'Egypt', 'postalcode': '11511'}","Heliopolis Towers Uruba Street, Heliopolis, Cairo 11511 Egypt"
13567060,Lobby Lounge,30.045794,31.232153000000004,81,5,qasr el nile,"{'street1': '1113 Corniche El Nil, Downtown', 'street2': None, 'city': 'Cairo', 'state': None, 'country': 'Egypt', 'postalcode': '11221'}","1113 Corniche El Nil, Downtown, Cairo 11221 Egypt"
2628507,Pane Vino Restaurant,30.084803000000004,31.232864000000003,418,4.5,rud el farag,"{'street1': 'Corniche El Nil', 'street2': 'InterContinental Cairo Semiramis Hotel', 'city': 'Cairo', 'state': None, 'country': 'Egypt', 'postalcode': '11511'}","Corniche El Nil InterContinental Cairo Semiramis Hotel, Cairo 11511 Egypt"
17637607,Xodo,30.024445,31.218594,65,5,el giza,"{'street1': '136 Nile Street', 'street2': None, 'city': 'Cairo', 'state': None, 'country': 'Egypt', 'postalcode': '12311'}","136 Nile Street, Cairo 12311 Egypt"
8591848,Maharaja Indian Restaurant at Ramses Hilton,30.052032,31.234959999999997,234,4.5,qasr el nile,"{'street1': '1115 Corniche El Nile', 'street2': 'Ramses Hilton', 'city': 'Cairo', 'state': None, 'country': 'Egypt', 'postalcode': '12344'}","1115 Corniche El Nile Ramses Hilton, Cairo 12344 Egypt"
1508799,Koshary Abou Tarek,30.050194,31.237896000000003,1384,4.5,qasr el nile,"{'street1': 'Choppin ln', 'street2': 'Champollion', 'city': 'Cairo', 'state': None, 'country': 'Egypt', 'postalcode': '11511'}","Choppin ln Champollion, Cairo 11511 Egypt"
12850496,Bar'Oro,30.045842999999998,31.232146999999998,71,5,qasr el nile,"{'street1': 'Ritz Carlton Hotel, Second Floor', 'street2': 'The Nile Ritz-Carlton', 'city': 'Cairo', 'state': None, 'country': 'Egypt', 'postalcode': '11221'}","Ritz Carlton Hotel, Second Floor The Nile Ritz-Carlton, Cairo 11221 Egypt"
13382973,India along the Nile,30.043190000000003,31.232388,103,4.5,qasr el nile,"{'street1': 'Corniche El Nil, Semiramis InterContinental Cairo, Cairo 11511 Egypt', 'street2': 'Garden City', 'city': 'Cairo', 'state': None, 'country': 'Egypt', 'postalcode': '11511'}","Corniche El Nil, Semiramis InterContinental Cairo, Cairo 11511 Egypt Garden City, Cairo 11511 Egypt"
14046817,Carlo's Le Pacha 1901,30.05198,31.227320000000002,260,4.5,waraq,"{'street1': 'Saray El Gezirah Street', 'street2': 'Zamalek', 'city': 'Cairo', 'state': None, 'country': 'Egypt', 'postalcode': '11511'}","Saray El Gezirah Street Zamalek, Cairo 11511 Egypt"
1929494,Le Deck By Laurent Peugeot,30.038776000000002,31.224591999999998,231,4.5,Zamalek,"{'street1': '3 El Thawra Council Street', 'street2': 'Zamalek Downtown', 'city': 'Cairo', 'state': None, 'country': 'Egypt', 'postalcode': '11511'}","3 El Thawra Council Street Zamalek Downtown, Cairo 11511 Egypt"
3610089,8 Chinese Restaurant,30.03632,31.229425,132,4.5,qasr el nile,"{'street1': '1089 Corniche El Nil', 'street2': 'Garden City', 'city': 'Cairo', 'state': None, 'country': 'Egypt', 'postalcode': '11519'}","1089 Corniche El Nil Garden City, Cairo 11519 Egypt"
3139482,Nile Cruise Cairo,30.043583,31.231977,202,4.5,qasr el nile,"{'street1': 'InterContinental Cairo Semiramis', 'street2': 'Corniche El Nile, Garden City', 'city': 'Cairo', 'state': None, 'country': 'Egypt', 'postalcode': '11511'}","InterContinental Cairo Semiramis Corniche El Nile, Garden City, Cairo 11511 Egypt"
1944490,Naguib Mahfouz Cafe,30.047926,31.261618,456,4.5,al jamalya,"{'street1': '5 El Baddistan Lane', 'street2': 'Khan el-Khalili', 'city': 'Cairo', 'state': None, 'country': 'Egypt', 'postalcode': '11511'}","5 El Baddistan Lane Khan el-Khalili, Cairo 11511 Egypt"
13446450,ESCA,30.087637,31.3339,264,5,Heliopolis,"{'street1': '4 Al Badeya Street', 'street2': 'Heliopolis', 'city': 'Cairo', 'state': None, 'country': 'Egypt', 'postalcode': '11511'}","4 Al Badeya Street Heliopolis, Cairo 11511 Egypt"
17637574,Nairu Restaurant and Lounge,30.024690000000003,31.218527,46,5,el giza,"{'street1': '136 Nile Street', 'street2': None, 'city': 'Cairo', 'state': None, 'country': 'Egypt', 'postalcode': '12311'}","136 Nile Street, Cairo 12311 Egypt"
19655638,Solis Restaurant,29.960729999999998,31.248098,47,5,maadi,"{'street1': '29 Cornish El Nil Maadi', 'street2': None, 'city': 'Cairo', 'state': None, 'country': 'Egypt', 'postalcode': '11511'}","29 Cornish El Nil Maadi, Cairo 11511 Egypt"
1083400,Taboula Lebanese Restaurant,30.039634999999997,31.232896999999998,551,4.5,qasr el nile,"{'street1': '1 Latin America Street', 'street2': 'Garden City', 'city': 'Cairo', 'state': None, 'country': 'Egypt', 'postalcode': '11511'}","1 Latin America Street Garden City, Cairo 11511 Egypt"
11688602,L'Asiatique - Le Pacha 1901,30.052444,31.227134999999997,112,4.5,waraq,"{'street1': 'El khalig street', 'street2': None, 'city': 'Cairo', 'state': None, 'country': 'Egypt', 'postalcode': '11511'}","El khalig street, Cairo 11511 Egypt"
13979771,Gianniniâs New York Italian Restaurant,30.039265000000004,31.220253000000003,88,4.5,waraq,"{'street1': 'Sheraton Cairo Hotel & Casino', 'street2': None, 'city': 'Cairo', 'state': None, 'country': 'Egypt', 'postalcode': '11511'}","Sheraton Cairo Hotel & Casino, Cairo 11511 Egypt"
6415733,Zitouni,30.036228,31.229534,135,4.5,qasr el nile,"{'street1': '1089 Corniche El Nil', 'street2': 'Four Seasons Hotel Cairo at Nile Plaza', 'city': 'Cairo', 'state': None, 'country': 'Egypt', 'postalcode': '11511'}","1089 Corniche El Nil Four Seasons Hotel Cairo at Nile Plaza, Cairo 11511 Egypt"
2614863,Bellini Cocktail Lounge,30.072344,31.34621,139,4.5,Madinat Nasr 1 ,"{'street1': 'InterContinental Cairo Citystars, In Hotel - Lobby Level', 'street2': 'Omar Ibn El Khattab St.', 'city': 'Cairo', 'state': None, 'country': 'Egypt', 'postalcode': '11511'}","InterContinental Cairo Citystars, In Hotel - Lobby Level Omar Ibn El Khattab St., Cairo 11511 Egypt"
4064691,Alfredo Restaurant,29.985462,31.133274,216,4.5,al ahram,"{'street1': '6 Pyramids Road', 'street2': 'Giza', 'city': 'Cairo', 'state': None, 'country': 'Egypt', 'postalcode': '12556'}","6 Pyramids Road Giza, Cairo 12556 Egypt"
10210317,Lucca,30.060678000000003,31.419563,164,4.5,al-qahirah al jadidah 2,"{'street1': 'Royal Maxim Palace Kempinski Cairo, First Settlement, New Cairo', 'street2': 'First Settlement, New Cairo', 'city': 'Cairo', 'state': None, 'country': 'Egypt', 'postalcode': '11477'}","Royal Maxim Palace Kempinski Cairo, First Settlement, New Cairo First Settlement, New Cairo, Cairo 11477 Egypt"
3398031,Zooba,30.073057000000002,31.344532,513,4,Madinat Nasr 1 ,"{'street1': '26th of July St, Zamalek', 'street2': 'Intersection of 26th of July and Shagaret El Dor', 'city': 'Cairo', 'state': None, 'country': 'Egypt', 'postalcode': '11511'}","26th of July St, Zamalek Intersection of 26th of July and Shagaret El Dor, Cairo 11511 Egypt"
12416746,Tao,30.026059999999998,31.455784,113,4.5,al-qahirah al jadidah,"{'street1': 'Dusit Thani Lakeview Cairo Hotel', 'street2': None, 'city': 'Cairo', 'state': None, 'country': 'Egypt', 'postalcode': '11511'}","Dusit Thani Lakeview Cairo Hotel, Cairo 11511 Egypt"
11688456,Piccolo Mondo,30.052063,31.227324,129,5,waraq,"{'street1': 'El Khalig Street', 'street2': None, 'city': 'Cairo', 'state': None, 'country': 'Egypt', 'postalcode': '11511'}","El Khalig Street, Cairo 11511 Egypt"
2727835,Kazaz Restaurant,30.047358000000003,31.239098,176,4,abdin,"{'street1': '38 Sabry Abou Alam St. Off Talaat Harb Sq. In Front Of Sidnawy', 'street2': None, 'city': 'Cairo', 'state': None, 'country': 'Egypt', 'postalcode': '11511'}","38 Sabry Abou Alam St. Off Talaat Harb Sq. In Front Of Sidnawy, Cairo 11511 Egypt"
1929493,La Palmeraie,30.038553000000004,31.224714000000002,193,4.5,waraq,"{'street1': '3 El Thawra Council Street', 'street2': None, 'city': 'Cairo', 'state': None, 'country': 'Egypt', 'postalcode': '11511'}","3 El Thawra Council Street, Cairo 11511 Egypt"
1929488,Kebabgy Oriental Grill,30.038475,31.223290999999996,326,4,waraq,"{'street1': '3 El Thawra Council Street', 'street2': None, 'city': 'Cairo', 'state': None, 'country': 'Egypt', 'postalcode': '11511'}","3 El Thawra Council Street, Cairo 11511 Egypt"
2460803,Stavolta,29.962006,31.276885999999998,137,4.5,maadi,"{'street1': '39 St 231 Maadi', 'street2': '', 'city': 'Cairo', 'state': None, 'country': 'Egypt', 'postalcode': '11511'}","39 St 231 Maadi, Cairo 11511 Egypt"
1027683,Abou el-Sid,30.0595,31.224103999999997,1418,4,Zamalek,"{'street1': '26 July St.', 'street2': None, 'city': 'Cairo', 'state': None, 'country': 'Egypt', 'postalcode': '11511'}","26 July St., Cairo 11511 Egypt"
3865820,Nagib Mafouz,30.047913,31.261578000000004,126,4.5,al jamalya,"{'street1': '5 El Badestan Lane', 'street2': 'Khan El Khalili', 'city': 'Cairo', 'state': None, 'country': 'Egypt', 'postalcode': '11511'}","5 El Badestan Lane Khan El Khalili, Cairo 11511 Egypt"
2445155,Lan Tania,30.106771000000002,31.365082,68,4.5,an-nuzhah,"{'street1': 'Hilton Cairo Heliopolis Uruba Street', 'street2': 'Heliopolis', 'city': 'Cairo', 'state': None, 'country': 'Egypt', 'postalcode': '11511'}","Hilton Cairo Heliopolis Uruba Street Heliopolis, Cairo 11511 Egypt"
9729534,Eatery,30.032866,31.412638,148,4.5,al-qahirah al jadidah,"{'street1': 'Cairo Festival City, Village Area', 'street2': None, 'city': 'Cairo', 'state': None, 'country': 'Egypt', 'postalcode': '11511'}","Cairo Festival City, Village Area, Cairo 11511 Egypt"
5562314,Aura,30.024178000000003,31.217249,98,4.5,el giza,"{'street1': '35 Giza Street Four Seasons Hotel, Cairo at the First Residence', 'street2': '', 'city': 'Cairo', 'state': None, 'country': 'Egypt', 'postalcode': '11511'}","35 Giza Street Four Seasons Hotel, Cairo at the First Residence, Cairo 11511 Egypt"
2249045,Bella,30.036106,31.229467,91,4.5,qasr el nile,"{'street1': '1089 Corniche El Nil', 'street2': 'Garden City', 'city': 'Cairo', 'state': None, 'country': 'Egypt', 'postalcode': '11519'}","1089 Corniche El Nil Garden City, Cairo 11519 Egypt"
3348503,Cairo Kitchen,30.060046999999997,31.2211,230,4,Zamalek,"{'street1': '118 26th July Street', 'street2': 'Zamalek', 'city': 'Cairo', 'state': None, 'country': 'Egypt', 'postalcode': '11511'}","118 26th July Street Zamalek, Cairo 11511 Egypt"
3847052,Ruen Thai at the Dusit Thani Lakeview,30.026009000000002,31.455571999999997,188,4.5,al-qahirah al jadidah,"{'street1': 'El Tesseen Street', 'street2': 'New Cairo', 'city': 'Cairo', 'state': None, 'country': 'Egypt', 'postalcode': '11511'}","El Tesseen Street New Cairo, Cairo 11511 Egypt"
1963450,Koshari al-Tahrir,30.050499,31.240796999999997,185,4,abdin,"{'street1': 'Sharia Abd el-Khalik Sarwat', 'street2': '', 'city': 'Cairo', 'state': None, 'country': 'Egypt', 'postalcode': '11511'}","Sharia Abd el-Khalik Sarwat, Cairo 11511 Egypt"
878192,Fish Market,30.025553000000002,31.218590000000003,301,4,el giza,"{'street1': 'Corniche El Maadi', 'street2': 'Opp. Maadi Second Entrance', 'city': 'Cairo', 'state': None, 'country': 'Egypt', 'postalcode': '11511'}","Corniche El Maadi Opp. Maadi Second Entrance, Cairo 11511 Egypt"
7359270,JW's Steakhouse . Cairo Marriott Hotel & Omar Khayyam Casino,30.057090000000002,31.224591999999998,115,4.5,Zamalek,"{'street1': '16 Saray El Gezira Street', 'street2': 'Zamalek', 'city': 'Cairo', 'state': None, 'country': 'Egypt', 'postalcode': '11511'}","16 Saray El Gezira Street Zamalek, Cairo 11511 Egypt"
10045360,Asmak,30.025090000000002,31.484701,103,4.5,al-qahirah al jadidah,"{'street1': 'Concord Plaza Mall', 'street2': 'Tesseen St.', 'city': 'Cairo', 'state': None, 'country': 'Egypt', 'postalcode': '11511'}","Concord Plaza Mall Tesseen St., Cairo 11511 Egypt"
4411738,Bab El Nil Restaurant,30.072208000000003,31.227759999999996,174,4.5,rud el farag,"{'street1': 'Fairmont Nile City', 'street2': 'Nile City Towers - 2005B, Corniche El Nil, Ramlet Beaulac', 'city': 'Cairo', 'state': None, 'country': 'Egypt', 'postalcode': '2466'}","Fairmont Nile City Nile City Towers - 2005B, Corniche El Nil, Ramlet Beaulac, Cairo 2466 Egypt"
7916160,Eish & Malh,30.05118,31.243778000000002,162,4,abdin,"{'street1': '20 Adly Street', 'street2': 'Directly in Front of the Jewish Synagogue', 'city': 'Cairo', 'state': None, 'country': 'Egypt', 'postalcode': '11511'}","20 Adly Street Directly in Front of the Jewish Synagogue, Cairo 11511 Egypt"
17189241,Egyptian Nights,30.105546999999998,31.363865000000004,60,5,an-nuzhah,"{'street1': 'Hilton Cairo Heliopolis', 'street2': 'El Orouba Street', 'city': 'Cairo', 'state': None, 'country': 'Egypt', 'postalcode': '11511'}","Hilton Cairo Heliopolis El Orouba Street, Cairo 11511 Egypt"
13117434,Kaber Sobhy Restaurant,30.084115999999998,31.234556,153,4,rud el farag,"{'street1': '151 Abeid Street', 'street2': None, 'city': 'Cairo', 'state': None, 'country': 'Egypt', 'postalcode': '11511'}","151 Abeid Street, Cairo 11511 Egypt"
1052672,Crave,30.067743,31.219582,177,4,Zamalek,"{'street1': '17 El mansour Mohamed Zamalek', 'street2': '', 'city': 'Cairo', 'state': None, 'country': 'Egypt', 'postalcode': '11511'}","17 El mansour Mohamed Zamalek, Cairo 11511 Egypt"
3218921,The Arcade Restaurant,30.072391999999997,31.346272999999997,48,5,Madinat Nasr 1 ,"{'street1': 'InterContinental Cairo Citystars', 'street2': 'Omar Ibn El Khattab St., Heliopolis', 'city': 'Cairo', 'state': None, 'country': 'Egypt', 'postalcode': '11511'}","InterContinental Cairo Citystars Omar Ibn El Khattab St., Heliopolis, Cairo 11511 Egypt"
4061565,Tamara,30.028114000000002,31.409496,184,4,al-qahirah al jadidah,"{'street1': 'City Star Mall', 'street2': None, 'city': 'Cairo', 'state': None, 'country': 'Egypt', 'postalcode': '11511'}","City Star Mall, Cairo 11511 Egypt"
1206829,Maison Thomas,30.059122,31.22405,263,4,Zamalek,"{'street1': '157 26 of July St', 'street2': 'Zamalek', 'city': 'Cairo', 'state': None, 'country': 'Egypt', 'postalcode': '11511'}","157 26 of July St Zamalek, Cairo 11511 Egypt"
2542940,Fuego Grill And Sushi Bar,29.977787,31.283990000000003,137,4,maadi,"{'street1': '9 Palestine Street, Inside Bandar Mall', 'street2': 'New Maadi', 'city': 'Cairo', 'state': None, 'country': 'Egypt', 'postalcode': '11511'}","9 Palestine Street, Inside Bandar Mall New Maadi, Cairo 11511 Egypt"
10344335,Yana,30.060616999999997,31.419003999999997,67,4.5,al-qahirah al jadidah 2,"{'street1': 'Royal Maxim Palace Kempinski Cairo, First Settlement, New Cairo', 'street2': 'First Settlement, New Cairo', 'city': 'Cairo', 'state': None, 'country': 'Egypt', 'postalcode': '00000'}","Royal Maxim Palace Kempinski Cairo, First Settlement, New Cairo First Settlement, New Cairo, Cairo 00000 Egypt"
2727596,Cucina,30.07197,31.43427,104,4,al-qahirah al jadidah 2,"{'street1': 'JW Marriott Hotel, Ring Road, Mirage City', 'street2': None, 'city': 'Cairo', 'state': None, 'country': 'Egypt', 'postalcode': '11511'}","JW Marriott Hotel, Ring Road, Mirage City, Cairo 11511 Egypt"
816626,Spectra Restaurant & Cafe,30.073206,31.346615000000003,397,4,Madinat Nasr 1 ,"{'street1': '14 Abd El Hameed Lotfy', 'street2': 'Mohandessin', 'city': 'Cairo', 'state': None, 'country': 'Egypt', 'postalcode': '11511'}","14 Abd El Hameed Lotfy Mohandessin, Cairo 11511 Egypt"
9712521,Oak Grill,30.065340000000003,31.227553999999998,61,4.5,al-qahirah al jadidah 2,"{'street1': '1191 Corniche El Nil', 'street2': None, 'city': 'Cairo', 'state': None, 'country': 'Egypt', 'postalcode': '11511'}","1191 Corniche El Nil, Cairo 11511 Egypt"
786134,Felfela,30.046618,31.238153000000004,1135,4,abdin,"{'street1': '15 Hoda Shaarawy Street', 'street2': 'Downtown', 'city': 'Cairo', 'state': None, 'country': 'Egypt', 'postalcode': '11511'}","15 Hoda Shaarawy Street Downtown, Cairo 11511 Egypt"
8854964,Le Pacha 1901,30.052387,31.227123,109,4.5,Zamalek,"{'street1': 'Saray El Gezirah Street', 'street2': 'in front of Gezira Sporting Club', 'city': 'Cairo', 'state': None, 'country': 'Egypt', 'postalcode': '68824'}","Saray El Gezirah Street in front of Gezira Sporting Club, Cairo 68824 Egypt"
4167584,Chinoix Restaurant,30.074713,31.439284999999998,67,4.5,al-qahirah al jadidah 2,"{'street1': 'Ring Road', 'street2': 'Renaissance Cairo Mirage City Hotel', 'city': 'Cairo', 'state': None, 'country': 'Egypt', 'postalcode': '11511'}","Ring Road Renaissance Cairo Mirage City Hotel, Cairo 11511 Egypt"
10276245,Nile Terrace,30.042994,31.232056,84,4.5,qasr el nile,"{'street1': 'Corniche El NIl', 'street2': 'InterContinental Semiramis Cairo', 'city': 'Cairo', 'state': None, 'country': 'Egypt', 'postalcode': '11511'}","Corniche El NIl InterContinental Semiramis Cairo, Cairo 11511 Egypt"
2653465,Lucille's,29.954786,31.2622,106,4,maadi,"{'street1': '9 40 Rd.', 'street2': '', 'city': 'Cairo', 'state': None, 'country': 'Egypt', 'postalcode': '11511'}","9 40 Rd., Cairo 11511 Egypt"
4154722,Maharaja Indian Restaurant,30.050364000000002,31.231780999999998,99,4,bulaq,"{'street1': 'Al Rehab', 'street2': 'Sook Tijary', 'city': 'Cairo', 'state': None, 'country': 'Egypt', 'postalcode': '11511'}","Al Rehab Sook Tijary, Cairo 11511 Egypt"
2516344,Omarâs Cafe Restaurant,30.056862,31.224891999999997,41,4.5,Zamalek,"{'street1': '16 Saray El Gezira Street', 'street2': 'Cairo Marriott Hotel & Omar Khayyam Casino', 'city': 'Cairo', 'state': None, 'country': 'Egypt', 'postalcode': '11511'}","16 Saray El Gezira Street Cairo Marriott Hotel & Omar Khayyam Casino, Cairo 11511 Egypt"
11868958,Mezcal,30.067304999999998,31.219738,60,4.5,Zamalek,"{'street1': '20 Taha Hussein street', 'street2': 'Zamalek', 'city': 'Cairo', 'state': None, 'country': 'Egypt', 'postalcode': '11511'}","20 Taha Hussein street Zamalek, Cairo 11511 Egypt"
6661881,Tabla Luna,29.97349,32.510459999999995,149,4,maadi,"{'street1': '218 41 Road', 'street2': None, 'city': 'Cairo', 'state': None, 'country': 'Egypt', 'postalcode': '11511'}","218 41 Road, Cairo 11511 Egypt"
3607593,Gad Restaurants,30.046425,31.261416999999998,116,4,darb el ahmar,"{'street1': '125 Azhar St.', 'street2': None, 'city': 'Cairo', 'state': None, 'country': 'Egypt', 'postalcode': '11511'}","125 Azhar St., Cairo 11511 Egypt"
1490984,Casper & Gambini's,30.071747,31.227797,135,4,rud el farag,"{'street1': '2005 Corniche El-Nil', 'street2': 'Zamalek', 'city': 'Cairo', 'state': None, 'country': 'Egypt', 'postalcode': '11511'}","2005 Corniche El-Nil Zamalek, Cairo 11511 Egypt"
4167624,Saraya Gallery,30.057178000000004,31.224669,43,4.5,Zamalek,"{'street1': '16 Saray El Gezira Street', 'street2': 'Cairo Marriott Hotel & Omar Khayyam Casino', 'city': 'Cairo', 'state': None, 'country': 'Egypt', 'postalcode': '11511'}","16 Saray El Gezira Street Cairo Marriott Hotel & Omar Khayyam Casino, Cairo 11511 Egypt"
17189235,Rainbow Bar,30.106409999999997,31.364626,24,5,an-nuzhah,"{'street1': 'Hilton Cairo Heliopolis', 'street2': 'El Orouba Street', 'city': 'Cairo', 'state': None, 'country': 'Egypt', 'postalcode': '11511'}","Hilton Cairo Heliopolis El Orouba Street, Cairo 11511 Egypt"
2728523,Kababgy El Azhar Farahat,30.046518,31.261515000000003,76,4,darb el ahmar,"{'street1': '126 El Azhar St.', 'street2': None, 'city': 'Cairo', 'state': None, 'country': 'Egypt', 'postalcode': '11511'}","126 El Azhar St., Cairo 11511 Egypt"
7950178,Pepenero,30.090673,31.323503000000002,109,4.5,Heliopolis,"{'street1': '18 Baghdad Street', 'street2': '1st Floor Above Venus Bakery', 'city': 'Cairo', 'state': None, 'country': 'Egypt', 'postalcode': '11511'}","18 Baghdad Street 1st Floor Above Venus Bakery, Cairo 11511 Egypt"
2633940,Khan El Khalili Restaurant,30.047690000000003,31.261999999999997,75,4,al jamalya,"{'street1': 'Khan El Khalili', 'street2': 'Part of the Mena House Oberoi chain', 'city': 'Cairo', 'state': None, 'country': 'Egypt', 'postalcode': '11511'}","Khan El Khalili Part of the Mena House Oberoi chain, Cairo 11511 Egypt"
6561711,Mandarine Koueider,30.062459999999998,31.219920000000002,67,4.5,Zamalek,"{'street1': '17 Shageret El Dor', 'street2': None, 'city': 'Cairo', 'state': None, 'country': 'Egypt', 'postalcode': '11511'}","17 Shageret El Dor, Cairo 11511 Egypt"
799893,The Revolving Restaurant,30.03425,31.226788,176,4,Misr al qadima,"{'street1': 'Corniche El Nile', 'street2': 'Grand Nile Tower', 'city': 'Cairo', 'state': None, 'country': 'Egypt', 'postalcode': '11511'}","Corniche El Nile Grand Nile Tower, Cairo 11511 Egypt"
2728499,Koshary El Tahrir,30.050577,31.240766999999998,47,4.5,abdin,"{'street1': '12 Youssef El Gendy St.', 'street2': None, 'city': 'Cairo', 'state': None, 'country': 'Egypt', 'postalcode': '11511'}","12 Youssef El Gendy St., Cairo 11511 Egypt"
805076,Le Steak,30.051693,31.227377,157,4.5,waraq,"{'street1': 'Saray El Gezirah Street', 'street2': 'Zamalek', 'city': 'Cairo', 'state': None, 'country': 'Egypt', 'postalcode': '11511'}","Saray El Gezirah Street Zamalek, Cairo 11511 Egypt"
7312747,Le Sud,30.0388,31.224429999999998,34,4.5,Zamalek,"{'street1': '3 El Thawra Council St Zamalek', 'street2': 'Inside Sofitel Gezirah', 'city': 'Cairo', 'state': None, 'country': 'Egypt', 'postalcode': '11511'}","3 El Thawra Council St Zamalek Inside Sofitel Gezirah, Cairo 11511 Egypt"
9790942,Oldish,30.043296999999995,31.238590000000002,67,4,abdin,"{'street1': '20 Mohammed Mahmoud', 'street2': 'Downtown', 'city': 'Cairo', 'state': None, 'country': 'Egypt', 'postalcode': '11511'}","20 Mohammed Mahmoud Downtown, Cairo 11511 Egypt"
13807802,Hard Rock Cafe,30.027803000000002,31.266615,71,4.5,al khalifah,"{'street1': 'Building 1, Citadel Plaza', 'street2': None, 'city': 'Cairo', 'state': None, 'country': 'Egypt', 'postalcode': '11511'}","Building 1, Citadel Plaza, Cairo 11511 Egypt"
10149858,Crave Cairo Festival City,30.02862,31.409466,87,4,al-qahirah al jadidah,"{'street1': 'Cairo Festival City', 'street2': None, 'city': 'Cairo', 'state': None, 'country': 'Egypt', 'postalcode': '11511'}","Cairo Festival City, Cairo 11511 Egypt"
6031358,The Platform,29.974169,31.234270000000002,107,4,dar as-salam,"{'street1': 'Located directly on the Nile', 'street2': '500 meters after you pass by HSBC building on the right hand side', 'city': 'Cairo', 'state': None, 'country': 'Egypt', 'postalcode': '11511'}","Located directly on the Nile 500 meters after you pass by HSBC building on the right hand side, Cairo 11511 Egypt"
12439396,The Smokery Heliopolis,30.092627,31.328255,35,4.5,Heliopolis,"{'street1': '58 Beirut Street, Heliopolis', 'street2': 'Heliopolis', 'city': 'Cairo', 'state': None, 'country': 'Egypt', 'postalcode': '11200'}","58 Beirut Street, Heliopolis Heliopolis, Cairo 11200 Egypt"
13873822,Little Italy Restaurant,29.960820000000002,31.247790000000002,31,4.5,maadi,"{'street1': 'Holiday Inn Cairo Maadi', 'street2': 'Cornish El Nil', 'city': 'Cairo', 'state': None, 'country': 'Egypt', 'postalcode': '11511'}","Holiday Inn Cairo Maadi Cornish El Nil, Cairo 11511 Egypt"
2358400,Kadoura Fish Restaurant,30.050526,31.199679999999997,209,4,el dooki,"{'street1': '66 Gameat el Dowal El Arabia St.', 'street2': 'Al Mohandessine', 'city': 'Cairo', 'state': None, 'country': 'Egypt', 'postalcode': '11511'}","66 Gameat el Dowal El Arabia St. Al Mohandessine, Cairo 11511 Egypt"
5011124,Ayadina Lebanese restaurant,30.087922999999996,31.324365999999998,124,4,Heliopolis,"{'street1': '3 Cleopatra street, Korba, Heliopolis', 'street2': 'Phase 1, 4th floor Citystars', 'city': 'Cairo', 'state': None, 'country': 'Egypt', 'postalcode': '11511'}","3 Cleopatra street, Korba, Heliopolis Phase 1, 4th floor Citystars, Cairo 11511 Egypt"
2352137,Rossini,30.09185,31.340637,59,4.5,Heliopolis,"{'street1': '66 Omar Ibn El Khattab St.', 'street2': '', 'city': 'Cairo', 'state': None, 'country': 'Egypt', 'postalcode': '11511'}","66 Omar Ibn El Khattab St., Cairo 11511 Egypt"
801996,El Rehab City Food Court,30.059067,31.48965,62,4.5,al-qahirah al jadidah 2,"{'street1': '', 'street2': '', 'city': 'Cairo', 'state': None, 'country': 'Egypt', 'postalcode': ''}",Cairo Egypt
12701291,Crimson Bar & Grill,30.070738000000002,31.222396999999997,138,4,Zamalek,"{'street1': '16 El Moseqar Kamal El Tawil Street', 'street2': None, 'city': 'Cairo', 'state': None, 'country': 'Egypt', 'postalcode': '11511'}","16 El Moseqar Kamal El Tawil Street, Cairo 11511 Egypt"
5498795,Live Sports Bar,30.117753999999998,31.391977,49,4.5,Madinat Nasr 1 ,"{'street1': 'Cairo International Airport - Terminal 3 - Heliopolis', 'street2': 'Terminal 3', 'city': 'Cairo', 'state': None, 'country': 'Egypt', 'postalcode': '11511'}","Cairo International Airport - Terminal 3 - Heliopolis Terminal 3, Cairo 11511 Egypt"
1027589,Egyptian Pancake House,30.046753000000002,31.261771999999997,60,4.5,al jamalya,"{'street1': 'Midan Hussein', 'street2': '', 'city': 'Cairo', 'state': None, 'country': 'Egypt', 'postalcode': '11511'}","Midan Hussein, Cairo 11511 Egypt"
3780631,Ahlein,30.071995,31.434294,48,4.5,al-qahirah al jadidah 2,"{'street1': 'Ring Road- Mirage City, JW Mariott Hotel Cairo', 'street2': 'Heliopolis', 'city': 'Cairo', 'state': None, 'country': 'Egypt', 'postalcode': '11511'}","Ring Road- Mirage City, JW Mariott Hotel Cairo Heliopolis, Cairo 11511 Egypt"
12318671,Tabali Bistro,30.091167,31.32665,28,4.5,Heliopolis,"{'street1': '18 Nazih Khalifa', 'street2': None, 'city': 'Cairo', 'state': None, 'country': 'Egypt', 'postalcode': '11511'}","18 Nazih Khalifa, Cairo 11511 Egypt"
1223288,Mori Sushi,29.967670000000002,31.260859999999997,160,4,Heliopolis,"{'street1': 'Salah Salem St.', 'street2': '', 'city': 'Cairo', 'state': None, 'country': 'Egypt', 'postalcode': '11511'}","Salah Salem St., Cairo 11511 Egypt"
4405170,Makino,30.067657,31.222307,79,4.5,Zamalek,"{'street1': '21 Mohamed Mazhar Zamalek, Cairo, Egypt.', 'street2': None, 'city': 'Cairo', 'state': None, 'country': 'Egypt', 'postalcode': '11511'}","21 Mohamed Mazhar Zamalek, Cairo, Egypt., Cairo 11511 Egypt"
1966453,Ristorante Tuscany,30.057207000000002,31.224735,63,4.5,Zamalek,"{'street1': '16 Saray El Gezira Street', 'street2': 'Marriott Hotel', 'city': 'Cairo', 'state': None, 'country': 'Egypt', 'postalcode': '11511'}","16 Saray El Gezira Street Marriott Hotel, Cairo 11511 Egypt"
5496213,EVOO Restaurtant,0.0,0.0,26,4.5,Heliopolis,"{'street1': '3 Le Meridien Cairo Airport Hotel, Cairo International Airport, Terminal', 'street2': None, 'city': 'Cairo', 'state': None, 'country': 'Egypt', 'postalcode': '11511'}","3 Le Meridien Cairo Airport Hotel, Cairo International Airport, Terminal, Cairo 11511 Egypt"
16673694,Le Marche,30.11658,31.33638,23,5,an-nuzhah,"{'street1': 'Uruba Street', 'street2': 'El Orouba Street', 'city': 'Cairo', 'state': None, 'country': 'Egypt', 'postalcode': '11511'}","Uruba Street El Orouba Street, Cairo 11511 Egypt"
2416362,Abou el Sid,30.059519,31.224096000000003,114,4,Zamalek,"{'street1': '7 45 Street', 'street2': 'Maadi', 'city': 'Cairo', 'state': None, 'country': 'Egypt', 'postalcode': '11511'}","7 45 Street Maadi, Cairo 11511 Egypt"
4167598,Garden Promenade Cafe,30.057261999999998,31.224548,57,4,Zamalek,"{'street1': '16 Saray El Gezira Street', 'street2': 'Cairo Marriott Hotel & Omar Khayyam Casino', 'city': 'Cairo', 'state': None, 'country': 'Egypt', 'postalcode': '11511'}","16 Saray El Gezira Street Cairo Marriott Hotel & Omar Khayyam Casino, Cairo 11511 Egypt"
12827550,The White Owl,29.962790000000002,31.274278999999996,35,4.5,maadi,"{'street1': '17, Road 216. Degla,', 'street2': 'Maadi.', 'city': 'Cairo', 'state': None, 'country': 'Egypt', 'postalcode': '11728'}","17, Road 216. Degla, Maadi., Cairo 11728 Egypt"
11807479,CaiRoma,30.045912,31.239323,37,4.5,abdin,"{'street1': '19 Youssef El-Gendi St.', 'street2': 'Beside Mall Of Boustan', 'city': 'Cairo', 'state': None, 'country': 'Egypt', 'postalcode': '11511'}","19 Youssef El-Gendi St. Beside Mall Of Boustan, Cairo 11511 Egypt"
13003907,Pier88 Nile River,30.053271999999996,31.226778000000003,112,4.5,Zamalek,"{'street1': '19 Saray El Gezirah Street', 'street2': 'Imperial Boat - Second Floor', 'city': 'Cairo', 'state': None, 'country': 'Egypt', 'postalcode': '11511'}","19 Saray El Gezirah Street Imperial Boat - Second Floor, Cairo 11511 Egypt"
10490398,Tajoury,30.021555,31.223127,28,4.5,Misr al qadima,"{'street1': '93 Abdel Aziz Al Seoud Street', 'street2': None, 'city': 'Cairo', 'state': None, 'country': 'Egypt', 'postalcode': '11511'}","93 Abdel Aziz Al Seoud Street, Cairo 11511 Egypt"
9739867,The State,30.060625,31.419643,32,4.5,al-qahirah al jadidah 2,"{'street1': 'Royal Maxim Palace Kempinski Cairo, First Settlement, New Cairo', 'street2': 'First Settlement, New Cairo', 'city': 'Cairo', 'state': None, 'country': 'Egypt', 'postalcode': '11511'}","Royal Maxim Palace Kempinski Cairo, First Settlement, New Cairo First Settlement, New Cairo, Cairo 11511 Egypt"
11906988,Ovio,29.958246000000003,31.268915000000003,55,4,maadi,"{'street1': '18 11 Road', 'street2': 'At the Royal Maadi Hotel,', 'city': 'Cairo', 'state': None, 'country': 'Egypt', 'postalcode': '11511'}","18 11 Road At the Royal Maadi Hotel,, Cairo 11511 Egypt"
3809992,Paul,30.018263,31.528408000000002,185,4,al-qahirah al jadidah,"{'street1': 'Area A-City Center, 5th District', 'street2': 'Road 90, New Cairo', 'city': 'Cairo', 'state': None, 'country': 'Egypt', 'postalcode': '11511'}","Area A-City Center, 5th District Road 90, New Cairo, Cairo 11511 Egypt"
12518382,China Red,30.114176,31.395122999999998,42,4,Madinat Nasr 1 ,"{'street1': 'Le Meridien Cairo Airport', 'street2': None, 'city': 'Cairo', 'state': None, 'country': 'Egypt', 'postalcode': '11511'}","Le Meridien Cairo Airport, Cairo 11511 Egypt"
12326594,The Tap East,30.045431,31.47655,102,4,al-qahirah al jadidah,"{'street1': '9 Mohamed Naguib Street', 'street2': None, 'city': 'Cairo', 'state': None, 'country': 'Egypt', 'postalcode': '11511'}","9 Mohamed Naguib Street, Cairo 11511 Egypt"
10475971,Citadel Grill,30.050385,31.231808,46,4.5,bulaq,"{'street1': '1115 Corniche El Nile', 'street2': 'Ramses Hilton', 'city': 'Cairo', 'state': None, 'country': 'Egypt', 'postalcode': '12344'}","1115 Corniche El Nile Ramses Hilton, Cairo 12344 Egypt"
4366950,Cake cafe,30.056356,31.222794,39,4.5,Zamalek,"{'street1': '14 El Gezira Street', 'street2': 'Zamalek', 'city': 'Cairo', 'state': None, 'country': 'Egypt', 'postalcode': '11511'}","14 El Gezira Street Zamalek, Cairo 11511 Egypt"
4167599,Egyptian Nights,30.056993,31.224407,29,4.5,Zamalek,"{'street1': '16 Saray El Gezira Street', 'street2': 'Cairo Marriott Hotel & Omar Khayyam Casino', 'city': 'Cairo', 'state': None, 'country': 'Egypt', 'postalcode': '11511'}","16 Saray El Gezira Street Cairo Marriott Hotel & Omar Khayyam Casino, Cairo 11511 Egypt"
3750383,Roy's,30.058113,31.224888,55,4,Zamalek,"{'street1': '16 Saray El Gezirah St', 'street2': 'Zamalek', 'city': 'Cairo', 'state': None, 'country': 'Egypt', 'postalcode': '11511'}","16 Saray El Gezirah St Zamalek, Cairo 11511 Egypt"
2729923,Al Refaaee,30.032372,31.242283,55,4.5,sayda zeinab,"{'street1': '37 El Nawawy St.', 'street2': None, 'city': 'Cairo', 'state': None, 'country': 'Egypt', 'postalcode': '11511'}","37 El Nawawy St., Cairo 11511 Egypt"
2727424,Le Chantilly,0.0,0.0,66,4,Heliopolis,"{'street1': '11 Baghdad St. In Front Of Credit Agricole Egypt Bank', 'street2': None, 'city': 'Cairo', 'state': None, 'country': 'Egypt', 'postalcode': '11511'}","11 Baghdad St. In Front Of Credit Agricole Egypt Bank, Cairo 11511 Egypt"
1536733,Bua Khao,0.0,0.0,75,4,Heliopolis,"{'street1': '151 No. 9 Road', 'street2': 'Old Maadi', 'city': 'Cairo', 'state': None, 'country': 'Egypt', 'postalcode': '11511'}","151 No. 9 Road Old Maadi, Cairo 11511 Egypt"
2726989,Mercado,0.0,0.0,35,4.5,maadi,"{'street1': ""16 Plot 3B, El Hegaz St. Beside McDonald's"", 'street2': '', 'city': 'Cairo', 'state': None, 'country': 'Egypt', 'postalcode': '11511'}","16 Plot 3B, El Hegaz St. Beside McDonald's, Cairo 11511 Egypt"
10730576,Sizzler,0.0,0.0,52,4,Zamalek,"{'street1': None, 'street2': None, 'city': 'Cairo', 'state': None, 'country': 'Egypt', 'postalcode': None}",Cairo Egypt
782407,La Bodega Aperitivo,0.0,0.0,140,4,Heliopolis,"{'street1': '157 26th of July Street', 'street2': 'Balmoral Hotel, Zamalek', 'city': 'Cairo', 'state': None, 'country': 'Egypt', 'postalcode': '11511'}","157 26th of July Street Balmoral Hotel, Zamalek, Cairo 11511 Egypt"
1557637,Massala,0.0,0.0,135,4,Zamalek,"{'street1': ""11 Mohamed Ebeid St, El-saba'a Emarat Square"", 'street2': 'inside compound Mivida', 'city': 'Cairo', 'state': None, 'country': 'Egypt', 'postalcode': '11511'}","11 Mohamed Ebeid St, El-saba'a Emarat Square inside compound Mivida, Cairo 11511 Egypt"
15364130,Arigato,0.0,0.0,30,4.5,Heliopolis,"{'street1': 'Taha Husain', 'street2': None, 'city': 'Cairo', 'state': None, 'country': 'Egypt', 'postalcode': '11511'}","Taha Husain, Cairo 11511 Egypt"
2330187,TBS- The Bakery Shop,0.0,0.0,91,4,maadi,"{'street1': '22 Baghdad St. ,El Korba', 'street2': 'Heliopolis', 'city': 'Cairo', 'state': None, 'country': 'Egypt', 'postalcode': '11511'}","22 Baghdad St. ,El Korba Heliopolis, Cairo 11511 Egypt"
2467651,Dragon house,0.0,0.0,33,4.5,el dooki,"{'street1': '32 Road 7, Maadi', 'street2': 'Beside Pearl Hotel', 'city': 'Cairo', 'state': None, 'country': 'Egypt', 'postalcode': '11511'}","32 Road 7, Maadi Beside Pearl Hotel, Cairo 11511 Egypt"
813145,Cortigiano,0.0,0.0,120,4,maadi,"{'street1': '44 Dr. Michael Bakhoum St., Dokki', 'street2': '', 'city': 'Cairo', 'state': None, 'country': 'Egypt', 'postalcode': '11511'}","44 Dr. Michael Bakhoum St., Dokki, Cairo 11511 Egypt"
2731014,Mermaid Restaurant,0.0,0.0,36,4.5,Zamalek,"{'street1': '9 Road', 'street2': None, 'city': 'Cairo', 'state': None, 'country': 'Egypt', 'postalcode': '11511'}","9 Road, Cairo 11511 Egypt"
8631373,Mahraja Resturant,0.0,0.0,60,4,abdin,"{'street1': 'Ismail Mohamed Street, Zamalek', 'street2': 'In front of Hotel Flamenco', 'city': 'Cairo', 'state': None, 'country': 'Egypt', 'postalcode': '11511'}","Ismail Mohamed Street, Zamalek In front of Hotel Flamenco, Cairo 11511 Egypt"
1402827,Estoril,0.0,0.0,82,4,Heliopolis,"{'street1': '12 Talaat Harb Street', 'street2': '', 'city': 'Cairo', 'state': None, 'country': 'Egypt', 'postalcode': '62914'}","12 Talaat Harb Street, Cairo 62914 Egypt"
5408917,Mezzeh Restaurant,0.0,0.0,26,4.5,maadi,"{'street1': 'Cairo International Airport - Terminal 3 . Heliopolis', 'street2': None, 'city': 'Cairo', 'state': None, 'country': 'Egypt', 'postalcode': '11511'}","Cairo International Airport - Terminal 3 . Heliopolis, Cairo 11511 Egypt"
12485795,Villa Caracas,0.0,0.0,34,4,Zamalek,"{'street1': '63 Road 9 Maadi', 'street2': 'Maadi as Sarayat Al Gharbeyah', 'city': 'Cairo', 'state': None, 'country': 'Egypt', 'postalcode': '11511'}","63 Road 9 Maadi Maadi as Sarayat Al Gharbeyah, Cairo 11511 Egypt"
3649240,Mince,0.0,0.0,136,4,Heliopolis,"{'street1': '13 Ahmed Heshmat', 'street2': 'Zamalek', 'city': 'Cairo', 'state': None, 'country': 'Egypt', 'postalcode': '11511'}","13 Ahmed Heshmat Zamalek, Cairo 11511 Egypt"
4228461,Abu Haidar,0.0,0.0,25,4.5,Zamalek,"{'street1': 'Ibrahim Al-Lakani St.', 'street2': 'Botrous Ghaly St', 'city': 'Cairo', 'state': None, 'country': 'Egypt', 'postalcode': '11511'}","Ibrahim Al-Lakani St. Botrous Ghaly St, Cairo 11511 Egypt"
3666590,Burger Factory 2012,0.0,0.0,57,4,Heliopolis,"{'street1': '114 26th July St Corner Hassan Sabry St', 'street2': 'Zamalek', 'city': 'Cairo', 'state': None, 'country': 'Egypt', 'postalcode': '11511'}","114 26th July St Corner Hassan Sabry St Zamalek, Cairo 11511 Egypt"
17189243,Darts,0.0,0.0,23,4.5,Zamalek,"{'street1': 'Hilton Cairo Heliopolis', 'street2': 'El- Orouba street', 'city': 'Cairo', 'state': None, 'country': 'Egypt', 'postalcode': '11511'}","Hilton Cairo Heliopolis El- Orouba street, Cairo 11511 Egypt"
1571872,Nile Maxim Restaurants,0.0,0.0,300,3.5,Heliopolis,"{'street1': 'Saraya El Gezira St', 'street2': 'In Front of Cairo Marriott Hotel', 'city': 'Cairo', 'state': None, 'country': 'Egypt', 'postalcode': '11511'}","Saraya El Gezira St In Front of Cairo Marriott Hotel, Cairo 11511 Egypt"
2728576,Abou Heidar,0.0,0.0,49,4.5,Heliopolis,"{'street1': '13 Ibrahim El Laqqany St.', 'street2': None, 'city': 'Cairo', 'state': None, 'country': 'Egypt', 'postalcode': '11511'}","13 Ibrahim El Laqqany St., Cairo 11511 Egypt"
4178652,Studio Masr,0.0,0.0,78,4,Zamalek,"{'street1': '58 El Thawra Street', 'street2': 'Heliopolis', 'city': 'Cairo', 'state': None, 'country': 'Egypt', 'postalcode': '11511'}","58 El Thawra Street Heliopolis, Cairo 11511 Egypt"
811232,Five Bells,0.0,0.0,122,4,abdin,"{'street1': '9 Ismail Mohamed St. Corner Eladelabubakr st Zamalek. Cairo Egypy', 'street2': '', 'city': 'Cairo', 'state': None, 'country': 'Egypt', 'postalcode': '11511'}","9 Ismail Mohamed St. Corner Eladelabubakr st Zamalek. Cairo Egypy, Cairo 11511 Egypt"
2726469,Pomodoro,0.0,0.0,73,4,abdin,"{'street1': '197 El Tahrir St. Below Health Bureau - Abdin', 'street2': None, 'city': 'Cairo', 'state': None, 'country': 'Egypt', 'postalcode': '11511'}","197 El Tahrir St. Below Health Bureau - Abdin, Cairo 11511 Egypt"
3606703,Fish Market,0.0,0.0,41,4,Heliopolis,"{'street1': '48 El Thawra St', 'street2': 'Heliopolis', 'city': 'Cairo', 'state': None, 'country': 'Egypt', 'postalcode': '11511'}","48 El Thawra St Heliopolis, Cairo 11511 Egypt"
2730835,Koshary El Tahrir,0.0,0.0,39,4.5,Heliopolis,"{'street1': '7 Abbas El Akkad St.', 'street2': None, 'city': 'Cairo', 'state': None, 'country': 'Egypt', 'postalcode': '11511'}","7 Abbas El Akkad St., Cairo 11511 Egypt"
3780620,JW's Steakhouse,0.0,0.0,53,4,Zamalek,"{'street1': 'Ring Road- Mirage City, JW Mariott Hotel Cairo, Heliopolis', 'street2': 'Heliopolis', 'city': 'Cairo', 'state': None, 'country': 'Egypt', 'postalcode': '11511'}","Ring Road- Mirage City, JW Mariott Hotel Cairo, Heliopolis Heliopolis, Cairo 11511 Egypt"
9754902,U Bistro & Bar,0.0,0.0,59,4,maadi,"{'street1': '157 26th of July St.', 'street2': 'Zamalek', 'city': 'Cairo', 'state': None, 'country': 'Egypt', 'postalcode': '11511'}","157 26th of July St. Zamalek, Cairo 11511 Egypt"
3608343,Crave,0.0,0.0,48,4,Zamalek,"{'street1': '213 30 Rd.', 'street2': 'Maadi', 'city': 'Cairo', 'state': None, 'country': 'Egypt', 'postalcode': '11511'}","213 30 Rd. Maadi, Cairo 11511 Egypt"
1027588,Torii The Gateway To Sushi And Teppanyaki,0.0,0.0,63,4,Zamalek,"{'street1': 'Cairo Marriott Hotel', 'street2': '16 Saray El Gezira, Zamalek', 'city': 'Cairo', 'state': None, 'country': 'Egypt', 'postalcode': '11511'}","Cairo Marriott Hotel 16 Saray El Gezira, Zamalek, Cairo 11511 Egypt"
8825900,Beit Ward Lebanese Restaurant,30.048646999999995,31.203613,72,4,el dooki,"{'street1': 'Ring Road', 'street2': '1st Compound, Porto Cairo Mall, New Cairo', 'city': 'Cairo', 'state': None, 'country': 'Egypt', 'postalcode': '11511'}","Ring Road 1st Compound, Porto Cairo Mall, New Cairo, Cairo 11511 Egypt"
2730986,Pyramids,30.03668,31.23413,37,4.5,qasr el nile,"{'street1': '75 Kasr El Ainy St.', 'street2': None, 'city': 'Cairo', 'state': None, 'country': 'Egypt', 'postalcode': '11511'}","75 Kasr El Ainy St., Cairo 11511 Egypt"
4581378,Italiano restaurant at Concorde El Salam Hotel Cairo,30.10789,31.37329,25,4.5,an-nuzhah,"{'street1': '65 Abdel Hamid Badawey Street', 'street2': 'Heliopolis', 'city': 'Cairo', 'state': None, 'country': 'Egypt', 'postalcode': '11511'}","65 Abdel Hamid Badawey Street Heliopolis, Cairo 11511 Egypt"
1805928,Little Swiss Restaurant,30.015134999999997,31.315078999999997,60,4.5,al-muqattam,"{'street1': '17 Street 18, Villa', 'street2': 'Maadi Sarayat', 'city': 'Cairo', 'state': None, 'country': 'Egypt', 'postalcode': '11511'}","17 Street 18, Villa Maadi Sarayat, Cairo 11511 Egypt"
816624,Beanos,30.043373,31.239258000000003,86,4,abdin,"{'street1': '', 'street2': '', 'city': 'Cairo', 'state': None, 'country': 'Egypt', 'postalcode': ''}",Cairo Egypt
2093634,Gaya Restaurant,30.0789,31.233079999999998,51,4.5,rud el farag,"{'street1': '218 32 Rd 253 And 41 Rd', 'street2': 'Degla, Maadi', 'city': 'Cairo', 'state': None, 'country': 'Egypt', 'postalcode': '11511'}","218 32 Rd 253 And 41 Rd Degla, Maadi, Cairo 11511 Egypt"
7129790,Bel Gelato Cairo,30.088959999999997,31.337404,27,4.5,Heliopolis,"{'street1': '128 El Merghany st.', 'street2': None, 'city': 'Cairo', 'state': None, 'country': 'Egypt', 'postalcode': '11511'}","128 El Merghany st., Cairo 11511 Egypt"
8817516,Vapiano,30.0244,31.406090000000003,38,4,al-qahirah al jadidah,"{'street1': 'Cairo Festival City', 'street2': None, 'city': 'Cairo', 'state': None, 'country': 'Egypt', 'postalcode': '11511'}","Cairo Festival City, Cairo 11511 Egypt"
7598025,The Tap Maadi,30.1427,31.24222,94,4.5,sheikh zayed,"{'street1': '257 Road, Building 17', 'street2': 'Infront of Olympic Village', 'city': 'Cairo', 'state': None, 'country': 'Egypt', 'postalcode': '11511'}","257 Road, Building 17 Infront of Olympic Village, Cairo 11511 Egypt"
8050288,Santorini,30.027275,31.013803000000003,39,4.5,sheikh zayed,"{'street1': 'Americana Plaza', 'street2': 'Sheikh Zayed', 'city': 'Cairo', 'state': None, 'country': 'Egypt', 'postalcode': '11511'}","Americana Plaza Sheikh Zayed, Cairo 11511 Egypt"
8039006,O.Liv.O  Pizzeria & Bar,30.13172,31.311729999999997,72,4,Zamalek,"{'street1': '20 Taha Hussein St.', 'street2': 'Zamalek', 'city': 'Cairo', 'state': None, 'country': 'Egypt', 'postalcode': '11511'}","20 Taha Hussein St. Zamalek, Cairo 11511 Egypt"
2727006,Jared's Bagels,0.0,0.0,17,5,Madinat Nasr 1 ,"{'street1': 'No. 5 13 Rd. 233, Beside Metro Market, Shop', 'street2': '', 'city': 'Cairo', 'state': None, 'country': 'Egypt', 'postalcode': '11511'}","No. 5 13 Rd. 233, Beside Metro Market, Shop, Cairo 11511 Egypt"
2726512,Asmak Bahary,30.05742,31.3457,30,4.5,Madinat Nasr 1 ,"{'street1': '26 Makram Ebaid St. beside Ahmed El Sallab Mall', 'street2': None, 'city': 'Cairo', 'state': None, 'country': 'Egypt', 'postalcode': '11511'}","26 Makram Ebaid St. beside Ahmed El Sallab Mall, Cairo 11511 Egypt"
815776,Tres Bon,30.094953999999998,31.321081,49,4,Heliopolis,"{'street1': '14 Ghernata St', 'street2': 'Korba Heliopolis', 'city': 'Cairo', 'state': None, 'country': 'Egypt', 'postalcode': '11511'}","14 Ghernata St Korba Heliopolis, Cairo 11511 Egypt"
2731200,Blue Nile Boat,30.045406,31.22863,126,3.5,qasr el nile,"{'street1': '9 A Saray Algazeera St', 'street2': None, 'city': 'Cairo', 'state': None, 'country': 'Egypt', 'postalcode': '11511'}","9 A Saray Algazeera St, Cairo 11511 Egypt"
4424489,Tutti Matti,29.954058000000003,31.262882,57,4,maadi,"{'street1': '9 49 Road', 'street2': 'Maadi', 'city': 'Cairo', 'state': None, 'country': 'Egypt', 'postalcode': '11511'}","9 49 Road Maadi, Cairo 11511 Egypt"
6503162,Porta D'oro,30.06888,31.267529999999997,40,4,al zahar,"{'street1': '30 Soliman Abaza St., Mohandessin', 'street2': None, 'city': 'Cairo', 'state': None, 'country': 'Egypt', 'postalcode': '11511'}","30 Soliman Abaza St., Mohandessin, Cairo 11511 Egypt"
8098944,Upper Deck Lounge,30.036081,31.229547999999998,31,4.5,qasr el nile,"{'street1': '1089 Corniche El Nil', 'street2': 'Garden City', 'city': 'Cairo', 'state': None, 'country': 'Egypt', 'postalcode': '11519'}","1089 Corniche El Nil Garden City, Cairo 11519 Egypt"
7596443,Restaurant El Menoufy El Kababgi,30.018532,31.422289000000003,56,4,al-qahirah al jadidah,"{'street1': 'Road 90 North', 'street2': 'Behind Down Town Mall', 'city': 'Cairo', 'state': None, 'country': 'Egypt', 'postalcode': '11511'}","Road 90 North Behind Down Town Mall, Cairo 11511 Egypt"
2726625,La Trattoria,30.065416,31.220919,71,4,Zamalek,"{'street1': '13a El Maraashly St', 'street2': None, 'city': 'Cairo', 'state': None, 'country': 'Egypt', 'postalcode': '11511'}","13a El Maraashly St, Cairo 11511 Egypt"
809370,Fuddruckers,29.97017,31.27686,65,4,maadi,"{'street1': '263 10, Street', 'street2': 'New Maadi', 'city': 'Cairo', 'state': None, 'country': 'Egypt', 'postalcode': '11511'}","263 10, Street New Maadi, Cairo 11511 Egypt"
2727981,Crab House,30.055382,31.492884000000004,21,4.5,al-qahirah al jadidah 2,"{'street1': 'No. 315 Commercial Market, Shop', 'street2': 'Al-Rehab', 'city': 'Cairo', 'state': None, 'country': 'Egypt', 'postalcode': '11511'}","No. 315 Commercial Market, Shop Al-Rehab, Cairo 11511 Egypt"
2727751,El Borg Restaurants For Sea Food,0.0,0.0,47,4,qasr el nile,"{'street1': '2 Abdullah El Araby St. Extension Of El Tayaran St. In Front Of Noury Khattab Mosque', 'street2': None, 'city': 'Cairo', 'state': None, 'country': 'Egypt', 'postalcode': '11511'}","2 Abdullah El Araby St. Extension Of El Tayaran St. In Front Of Noury Khattab Mosque, Cairo 11511 Egypt"
10059702,"Nox Restaurant, Bar & Lounge",30.045896999999997,31.232384000000003,58,4,qasr el nile,"{'street1': 'Corniche El Nil St.', 'street2': 'Inside The Nile Ritz-Carlton', 'city': 'Cairo', 'state': None, 'country': 'Egypt', 'postalcode': '11221'}","Corniche El Nil St. Inside The Nile Ritz-Carlton, Cairo 11221 Egypt"
10031528,Crave,30.0862,31.347922999999998,20,4.5,Heliopolis,"{'street1': 'Omar Ibn ElKhattab Street', 'street2': None, 'city': 'Cairo', 'state': None, 'country': 'Egypt', 'postalcode': '11511'}","Omar Ibn ElKhattab Street, Cairo 11511 Egypt"
1986214,Le Peking Zamalek,30.15101,31.31415,63,4,darb el ahmar,"{'street1': '23b Ismail Mohamed St.', 'street2': '', 'city': 'Cairo', 'state': None, 'country': 'Egypt', 'postalcode': '11511'}","23b Ismail Mohamed St., Cairo 11511 Egypt"
3707555,Studio Masr,30.03681,31.25905,51,4,darb el ahmar,"{'street1': 'Azhar Park', 'street2': None, 'city': 'Cairo', 'state': None, 'country': 'Egypt', 'postalcode': '11511'}","Azhar Park, Cairo 11511 Egypt"
12572481,Paul Cairo Festival City,30.028786,31.409443,54,4,al-qahirah al jadidah,"{'street1': 'Cairo Festival City', 'street2': None, 'city': 'Cairo', 'state': None, 'country': 'Egypt', 'postalcode': '11511'}","Cairo Festival City, Cairo 11511 Egypt"
1969865,Asia Bar,30.045616,31.229328000000002,44,4,qasr el nile,"{'street1': '9A Saraya EL Gezira St.', 'street2': 'Blue Nile Boat', 'city': 'Cairo', 'state': None, 'country': 'Egypt', 'postalcode': '11511'}","9A Saraya EL Gezira St. Blue Nile Boat, Cairo 11511 Egypt"
16710850,Pinchos Tapas Bar & Restaurant,30.093094,31.328257,24,4.5,Heliopolis,"{'street1': '58 Beirut street', 'street2': None, 'city': 'Cairo', 'state': None, 'country': 'Egypt', 'postalcode': '11511'}","58 Beirut street, Cairo 11511 Egypt"
2614875,The Lounge Restaurant,30.095985,31.33435,34,4.5,Heliopolis,"{'street1': 'InterContinental Cairo Citystars', 'street2': 'Omar Ibn El Khattab St., Heliopolis', 'city': 'Cairo', 'state': None, 'country': 'Egypt', 'postalcode': '11511'}","InterContinental Cairo Citystars Omar Ibn El Khattab St., Heliopolis, Cairo 11511 Egypt"
1201432,Cilantro,0.0,0.0,46,4,Heliopolis,"{'street1': '126 Othman Ibn Affan St.', 'street2': '', 'city': 'Cairo', 'state': None, 'country': 'Egypt', 'postalcode': '11511'}","126 Othman Ibn Affan St., Cairo 11511 Egypt"
19608202,Tagen W Bram,30.081673,31.324001000000003,10,5,Madinat Nasr 1 ,"{'street1': '52 Ibrahim Salem, Al Golf, Nasr City', 'street2': 'Heliopolis', 'city': 'Cairo', 'state': None, 'country': 'Egypt', 'postalcode': '11341'}","52 Ibrahim Salem, Al Golf, Nasr City Heliopolis, Cairo 11341 Egypt"
3806362,Asian Corner,29.958319,31.269109999999998,30,4,maadi,"{'street1': '18 11 Road', 'street2': '', 'city': 'Cairo', 'state': None, 'country': 'Egypt', 'postalcode': '11511'}","18 11 Road, Cairo 11511 Egypt"
4178655,El Borg Restaurant,30.051903000000003,31.3276,43,4,Madinat Nasr 1 ,"{'street1': 'Tayaran Street', 'street2': 'Nasr City', 'city': 'Cairo', 'state': None, 'country': 'Egypt', 'postalcode': '11511'}","Tayaran Street Nasr City, Cairo 11511 Egypt"
2081272,Akram Gad,30.052809000000003,31.242890000000003,139,3.5,abdin,"{'street1': '13 26th of July St.', 'street2': '', 'city': 'Cairo', 'state': None, 'country': 'Egypt', 'postalcode': '11511'}","13 26th of July St., Cairo 11511 Egypt"
13481064,Eish w Gebna,30.013984999999998,31.41729,16,4.5,al-qahirah al jadidah,"{'street1': 'G-Out Mall, 90 Street', 'street2': None, 'city': 'Cairo', 'state': None, 'country': 'Egypt', 'postalcode': '11511'}","G-Out Mall, 90 Street, Cairo 11511 Egypt"
3139502,Tea Garden,30.043102,31.231855,32,4,qasr el nile,"{'street1': 'Semiramis InterContinental Cairo, Corniche El Nil', 'street2': 'Corniche El Nil, Garden City', 'city': 'Cairo', 'state': None, 'country': 'Egypt', 'postalcode': '11511'}","Semiramis InterContinental Cairo, Corniche El Nil Corniche El Nil, Garden City, Cairo 11511 Egypt"
2302250,Nawab Indian Restaurant,30.0705,31.221159999999998,53,4,Zamalek,"{'street1': '21 B Bahgat Ali street', 'street2': 'Zamalek', 'city': 'Cairo', 'state': None, 'country': 'Egypt', 'postalcode': '11511'}","21 B Bahgat Ali street Zamalek, Cairo 11511 Egypt"
13340534,Spaghi - Spaghetteria,30.019603999999998,31.00086,13,4.5,sheikh zayed,"{'street1': 'Al Guezira Plaza, Sheikh Zayed City', 'street2': None, 'city': 'Cairo', 'state': None, 'country': 'Egypt', 'postalcode': '11511'}","Al Guezira Plaza, Sheikh Zayed City, Cairo 11511 Egypt"
6205771,Buffalo Burger,30.017687,31.411713,40,4,al-qahirah al jadidah,"{'street1': 'South Teseen Road Downtown Katameya', 'street2': None, 'city': 'Cairo', 'state': None, 'country': 'Egypt', 'postalcode': '11511'}","South Teseen Road Downtown Katameya, Cairo 11511 Egypt"
1980812,Napa Grill Restaurant,0.0,0.0,28,4.5,qasr el nile,"{'street1': 'Fairmont Nile City Hotel', 'street2': 'Nile City Towers - 2005 B, Corniche El Nil, Ramlet Beaulac', 'city': 'Cairo', 'state': None, 'country': 'Egypt', 'postalcode': '02466'}","Fairmont Nile City Hotel Nile City Towers - 2005 B, Corniche El Nil, Ramlet Beaulac, Cairo 02466 Egypt"
15319756,Stash Bar,30.11924,31.300729999999998,10,5,al-matariyah,"{'street1': '9 Rostom Street.', 'street2': None, 'city': 'Cairo', 'state': None, 'country': 'Egypt', 'postalcode': '11511'}","9 Rostom Street., Cairo 11511 Egypt"
2727105,La Sirena,30.101864000000003,31.346490000000003,19,4.5,an-nuzhah,"{'street1': '115 Othman Ibn Affan St. Beside Peking Restaurant', 'street2': None, 'city': 'Cairo', 'state': None, 'country': 'Egypt', 'postalcode': '11511'}","115 Othman Ibn Affan St. Beside Peking Restaurant, Cairo 11511 Egypt"
1098554,Harrry's Pub,30.058308,31.224634000000002,77,3.5,Zamalek,"{'street1': '', 'street2': '', 'city': 'Cairo', 'state': None, 'country': 'Egypt', 'postalcode': ''}",Cairo Egypt
8052661,Ted's,30.073824,31.344376,55,4,Madinat Nasr 1 ,"{'street1': 'Citystars', 'street2': None, 'city': 'Cairo', 'state': None, 'country': 'Egypt', 'postalcode': '11511'}","Citystars, Cairo 11511 Egypt"
8870994,Kazdoura Lebanese Cuisine,30.014933000000003,31.499037,21,4.5,al-qahirah al jadidah,"{'street1': None, 'street2': 'Inside the Spot, In Front of the Auc Gate 4, Zizinia', 'city': 'Cairo', 'state': None, 'country': 'Egypt', 'postalcode': '16150'}","Inside the Spot, In Front of the Auc Gate 4, Zizinia, Cairo 16150 Egypt"
7655861,Il Mulino,29.969773999999997,31.275076000000002,36,4,maadi,"{'street1': '7 Street 261, Al Maadi', 'street2': 'Al Maadi', 'city': 'Cairo', 'state': None, 'country': 'Egypt', 'postalcode': '11511'}","7 Street 261, Al Maadi Al Maadi, Cairo 11511 Egypt"
1100764,Citadel View Alain Le Notre,30.042149,31.266068,57,4,darb el ahmar,"{'street1': 'Salah Salem', 'street2': '', 'city': 'Cairo', 'state': None, 'country': 'Egypt', 'postalcode': '11511'}","Salah Salem, Cairo 11511 Egypt"
12727569,Al Manzil Lebanese Garden,30.090178,31.323890000000002,23,4.5,Heliopolis,"{'street1': '3 Mamnon St Heliopolis', 'street2': None, 'city': 'Cairo', 'state': None, 'country': 'Egypt', 'postalcode': '11511'}","3 Mamnon St Heliopolis, Cairo 11511 Egypt"
810543,Planet Africa,30.073140999999996,31.34658,87,4,Madinat Nasr 1 ,"{'street1': 'City Stars Mall, Masaken Al Mohandesin', 'street2': 'Nasr City', 'city': 'Cairo', 'state': None, 'country': 'Egypt', 'postalcode': '11511'}","City Stars Mall, Masaken Al Mohandesin Nasr City, Cairo 11511 Egypt"
5267622,The Greek,30.012240000000002,31.287844,38,4,al-muqattam,"{'street1': '231 19 Road', 'street2': 'Maadi', 'city': 'Cairo', 'state': None, 'country': 'Egypt', 'postalcode': '11511'}","231 19 Road Maadi, Cairo 11511 Egypt"
786635,Sea Gull,30.123271999999996,31.582705999999998,100,4,el dooki,"{'street1': '106 Nile Street', 'street2': 'Next to the Judgesâ Club â Dokki', 'city': 'Cairo', 'state': None, 'country': 'Egypt', 'postalcode': '11511'}","106 Nile Street Next to the Judgesâ Club â Dokki, Cairo 11511 Egypt"
3547624,Baladina,0.0,0.0,27,4.5,sheikh zayed,"{'street1': 'Entrance 2', 'street2': 'Arkan Mall', 'city': 'Cairo', 'state': None, 'country': 'Egypt', 'postalcode': None}","Entrance 2 Arkan Mall, Cairo Egypt"
5962608,Swiss Cottage,29.95327,31.351934000000004,22,4.5,maadi,"{'street1': '21 Road 254, Degla, Maadi', 'street2': 'Near Cairo American School and Samia Allouba Gym', 'city': 'Cairo', 'state': None, 'country': 'Egypt', 'postalcode': '11511'}","21 Road 254, Degla, Maadi Near Cairo American School and Samia Allouba Gym, Cairo 11511 Egypt"
8000785,Kazouza,29.96208,31.30544,25,4,maadi,"{'street1': '14 Road 9, Thakanat El Maadi, Maadi', 'street2': 'Next to Mercedes', 'city': 'Cairo', 'state': None, 'country': 'Egypt', 'postalcode': '11511'}","14 Road 9, Thakanat El Maadi, Maadi Next to Mercedes, Cairo 11511 Egypt"
7380286,Fasahet Somaya,30.045840000000002,31.240257,31,4,abdin,"{'street1': 'Youssef El-Gendi', 'street2': None, 'city': 'Cairo', 'state': None, 'country': 'Egypt', 'postalcode': '11511'}","Youssef El-Gendi, Cairo 11511 Egypt"
3606670,Abou Shakra,30.031146999999997,31.23255,102,4,qasr el nile,"{'street1': '69 Kasr El Ainy St.', 'street2': None, 'city': 'Cairo', 'state': None, 'country': 'Egypt', 'postalcode': '11562'}","69 Kasr El Ainy St., Cairo 11562 Egypt"
15794968,Casa Mia Italian Brasserie,30.038565000000002,31.224728000000002,19,4.5,waraq,"{'street1': '3 El Thawra Council Street.', 'street2': 'Zamalek', 'city': 'Cairo', 'state': None, 'country': 'Egypt', 'postalcode': '11511'}","3 El Thawra Council Street. Zamalek, Cairo 11511 Egypt"
8609432,Dona onesta,29.956644,31.25974,15,5,maadi,"{'street1': '82 Pearl Hotel, 32 Rd. 7 Intersection of Rd.', 'street2': 'Next to Banque Misr) Maadi', 'city': 'Cairo', 'state': None, 'country': 'Egypt', 'postalcode': '11511'}","82 Pearl Hotel, 32 Rd. 7 Intersection of Rd. Next to Banque Misr) Maadi, Cairo 11511 Egypt"
7312746,Blaze Restaurant & Cafe,30.085715999999998,31.341133000000003,23,4,Heliopolis,"{'street1': '49 El Nozha Street', 'street2': 'Heliopolis', 'city': 'Cairo', 'state': None, 'country': 'Egypt', 'postalcode': '11511'}","49 El Nozha Street Heliopolis, Cairo 11511 Egypt"
4584368,Testa Rosa Cafe at Concorde El Salam Hotel Cairo.,30.121240000000004,31.291559999999997,36,4,Heliopolis,"{'street1': '65 Abdel Hamid Badawey Street', 'street2': None, 'city': 'Cairo', 'state': None, 'country': 'Egypt', 'postalcode': '11511'}","65 Abdel Hamid Badawey Street, Cairo 11511 Egypt"
3608506,El Dahan Restaurant,30.05442,31.235770000000002,60,4,bulaq,"{'street1': '52 26th of July St.', 'street2': 'Downtown', 'city': 'Cairo', 'state': None, 'country': 'Egypt', 'postalcode': '11511'}","52 26th of July St. Downtown, Cairo 11511 Egypt"
801375,Peking,30.10264,31.34651,64,4,an-nuzhah,"{'street1': '115 Othman Ibn Affan St.', 'street2': 'off Triumph Square', 'city': 'Cairo', 'state': None, 'country': 'Egypt', 'postalcode': '11511'}","115 Othman Ibn Affan St. off Triumph Square, Cairo 11511 Egypt"
6878654,BARBACOA Mexican Grill,29.958876,31.259949,46,4,maadi,"{'street1': 'Road 10, Maadi, Mostafa Kamel Intersection, Cairo, Egypt', 'street2': None, 'city': 'Cairo', 'state': None, 'country': 'Egypt', 'postalcode': '11511'}","Road 10, Maadi, Mostafa Kamel Intersection, Cairo, Egypt, Cairo 11511 Egypt"
8645396,Grapes Restaurant & Lounge,29.957921999999996,31.259794,32,4,maadi,"{'street1': 'Villa 82 Street 9 Maadi', 'street2': None, 'city': 'Cairo', 'state': None, 'country': 'Egypt', 'postalcode': '11511'}","Villa 82 Street 9 Maadi, Cairo 11511 Egypt"
942188,Bistro,30.061135999999998,31.351886999999998,69,4,Madinat Nasr 1 ,"{'street1': 'Abo Dawod El-Zahery Street - Nasr City', 'street2': '', 'city': 'Cairo', 'state': None, 'country': 'Egypt', 'postalcode': '11511'}","Abo Dawod El-Zahery Street - Nasr City, Cairo 11511 Egypt"
3607761,Koshary Alex Top,30.063990000000004,31.220240000000004,18,4.5,Zamalek,"{'street1': '2 Dr. Taha Hussein St.', 'street2': 'Zamalek', 'city': 'Cairo', 'state': None, 'country': 'Egypt', 'postalcode': '11511'}","2 Dr. Taha Hussein St. Zamalek, Cairo 11511 Egypt"
3606162,Mori Sushi,0.0,0.0,18,4.5,maadi,"{'street1': '76 Rd. 9 In front Of Costa Coffee', 'street2': 'In front Of Costa Coffee', 'city': 'Cairo', 'state': None, 'country': 'Egypt', 'postalcode': '11511'}","76 Rd. 9 In front Of Costa Coffee In front Of Costa Coffee, Cairo 11511 Egypt"
5563294,Olives,30.028337,31.409225,43,4,al-qahirah al jadidah,"{'street1': 'Road 90, 5th Settlement, New Cairo, City Stars, Phase 2, 4th Floor', 'street2': None, 'city': 'Cairo', 'state': None, 'country': 'Egypt', 'postalcode': '11511'}","Road 90, 5th Settlement, New Cairo, City Stars, Phase 2, 4th Floor, Cairo 11511 Egypt"
1201108,Ruby Tuesday,30.089259999999996,31.32217,56,4,Heliopolis,"{'street1': 'City Stars, 4th Floor- Phase 1, Heliopolis', 'street2': '', 'city': 'Cairo', 'state': None, 'country': 'Egypt', 'postalcode': '11511'}","City Stars, 4th Floor- Phase 1, Heliopolis, Cairo 11511 Egypt"
13186823,Zooba,29.957827,31.259974,19,4.5,maadi,"{'street1': '9 80 Road', 'street2': 'Maadi', 'city': 'Cairo', 'state': None, 'country': 'Egypt', 'postalcode': '11511'}","9 80 Road Maadi, Cairo 11511 Egypt"
3971533,Beano's,29.958494,31.260393,32,4,maadi,"{'street1': '10 Rd', 'street2': 'Maadi', 'city': 'Cairo', 'state': None, 'country': 'Egypt', 'postalcode': '11511'}","10 Rd Maadi, Cairo 11511 Egypt"
6608009,La Brioche Doree,30.07335,31.346525,52,4,Madinat Nasr 1 ,"{'street1': 'City Stars Mall', 'street2': None, 'city': 'Cairo', 'state': None, 'country': 'Egypt', 'postalcode': '11511'}","City Stars Mall, Cairo 11511 Egypt"
2728968,Koshary El Zaeem,30.04478,31.242140000000003,38,4,abdin,"{'street1': '182 El Tahrir St.', 'street2': None, 'city': 'Cairo', 'state': None, 'country': 'Egypt', 'postalcode': '11511'}","182 El Tahrir St., Cairo 11511 Egypt"
9806120,LOFT21,30.060963,31.339636,23,4.5,Madinat Nasr 1 ,"{'street1': '9 Rostom Street', 'street2': None, 'city': 'Cairo', 'state': None, 'country': 'Egypt', 'postalcode': '11511'}","9 Rostom Street, Cairo 11511 Egypt"
2726333,Greek Club Center,30.04764,31.238241,19,4.5,abdin,"{'street1': '21 Mahmoud Basiony St. Talaat Harb Sq. Above Groppi', 'street2': None, 'city': 'Cairo', 'state': None, 'country': 'Egypt', 'postalcode': '11511'}","21 Mahmoud Basiony St. Talaat Harb Sq. Above Groppi, Cairo 11511 Egypt"
13142005,Kokio Chicken,30.112090000000002,31.72092,12,4.5,Madinat Badr,"{'street1': '23 Road 232, Maadi', 'street2': None, 'city': 'Cairo', 'state': None, 'country': 'Egypt', 'postalcode': '11511'}","23 Road 232, Maadi, Cairo 11511 Egypt"
12686249,Desoky and Soda,30.1134,31.711340000000003,35,4,Madinat Badr,"{'street1': '9 14 Road', 'street2': None, 'city': 'Cairo', 'state': None, 'country': 'Egypt', 'postalcode': '11511'}","9 14 Road, Cairo 11511 Egypt"
2730883,Estacoza Sea Food,30.058868,31.327524,16,4.5,Madinat Nasr 1 ,"{'street1': '7 Ismail El Qabbany St.', 'street2': None, 'city': 'Cairo', 'state': None, 'country': 'Egypt', 'postalcode': '11511'}","7 Ismail El Qabbany St., Cairo 11511 Egypt"
12193404,Solana Restaurant,30.064724,31.22735,12,4.5,bulaq,"{'street1': '1191 Corniche El Nil', 'street2': None, 'city': 'Cairo', 'state': None, 'country': 'Egypt', 'postalcode': '11221'}","1191 Corniche El Nil, Cairo 11221 Egypt"
9703529,Piazzini,30.028627,31.455820000000003,51,4,al-qahirah al jadidah,"{'street1': 'Al-Hurreia Axis Al Tesseen St', 'street2': 'Behind Dusit Thani Hotel', 'city': 'Cairo', 'state': None, 'country': 'Egypt', 'postalcode': '11511'}","Al-Hurreia Axis Al Tesseen St Behind Dusit Thani Hotel, Cairo 11511 Egypt"
13382876,Abou El Sid,30.06493,31.42482,13,4.5,al-qahirah al jadidah 2,"{'street1': 'Porto Cairo Mall', 'street2': None, 'city': 'Cairo', 'state': None, 'country': 'Egypt', 'postalcode': '11511'}","Porto Cairo Mall, Cairo 11511 Egypt"
17782629,Beeja,0.0,0.0,8,5,Zamalek,"{'street1': '53 Abou El Feda', 'street2': 'Biota Complex', 'city': 'Cairo', 'state': None, 'country': 'Egypt', 'postalcode': '11511'}","53 Abou El Feda Biota Complex, Cairo 11511 Egypt"
2727977,El Dahan,30.056653999999998,31.491417,45,4,al-qahirah al jadidah 2,"{'street1': 'no. 163 164 Commercial Market, Shop', 'street2': None, 'city': 'Cairo', 'state': None, 'country': 'Egypt', 'postalcode': '11511'}","no. 163 164 Commercial Market, Shop, Cairo 11511 Egypt"
10642060,Mori Sushi,30.028909999999996,31.40768,19,4,al-qahirah al jadidah,"{'street1': 'Festival City Mall', 'street2': None, 'city': 'Cairo', 'state': None, 'country': 'Egypt', 'postalcode': '11511'}","Festival City Mall, Cairo 11511 Egypt"
2007582,Blackstone Bistro,30.13689,31.31017,39,4,al-matariyah,"{'street1': '4 Ali El Kordy Street', 'street2': 'Behind Sofitel Maadi Towers, Maadi', 'city': 'Cairo', 'state': None, 'country': 'Egypt', 'postalcode': '11511'}","4 Ali El Kordy Street Behind Sofitel Maadi Towers, Maadi, Cairo 11511 Egypt"
9732488,Antique Khana,30.061090000000004,31.222379999999998,18,4.5,Zamalek,"{'street1': '8 Brazil Street', 'street2': 'Zamalek', 'city': 'Cairo', 'state': None, 'country': 'Egypt', 'postalcode': '11511'}","8 Brazil Street Zamalek, Cairo 11511 Egypt"
10182655,Tamara,29.986420000000003,31.24933,22,4,dar as-salam,"{'street1': 'Mohammed Nagib Axis', 'street2': None, 'city': 'Cairo', 'state': None, 'country': 'Egypt', 'postalcode': '11511'}","Mohammed Nagib Axis, Cairo 11511 Egypt"
13561948,Chicken Fil-A,30.05317,31.431759999999997,24,4,al-qahirah al jadidah 2,"{'street1': 'Emerald Twin Plaza Mall', 'street2': 'New Cairo', 'city': 'Cairo', 'state': None, 'country': 'Egypt', 'postalcode': '11511'}","Emerald Twin Plaza Mall New Cairo, Cairo 11511 Egypt"
8326758,Om Hassan,30.018203999999997,31.421021999999997,51,4,al-qahirah al jadidah,"{'street1': '105 Banks Center St.', 'street2': 'New Cairo City', 'city': 'Cairo', 'state': None, 'country': 'Egypt', 'postalcode': '11511'}","105 Banks Center St. New Cairo City, Cairo 11511 Egypt"
8778308,L'incontro,30.089844,31.324362,18,4,Heliopolis,"{'street1': '11 Seezostrees Str', 'street2': 'Off Baghdad Str, El Korba', 'city': 'Cairo', 'state': None, 'country': 'Egypt', 'postalcode': '11511'}","11 Seezostrees Str Off Baghdad Str, El Korba, Cairo 11511 Egypt"
12875991,Il Loft,30.019932,31.003953999999997,23,4,sheikh zayed,"{'street1': 'Arkan Plaza, Sheikh Zayed City', 'street2': None, 'city': 'Cairo', 'state': None, 'country': 'Egypt', 'postalcode': '11511'}","Arkan Plaza, Sheikh Zayed City, Cairo 11511 Egypt"
7144006,Tataa Sons,30.162390000000002,31.3066,15,4.5,maadi,"{'street1': 'Mogamma El Bonouq St., 5th Settlement', 'street2': None, 'city': 'Cairo', 'state': None, 'country': 'Egypt', 'postalcode': '11511'}","Mogamma El Bonouq St., 5th Settlement, Cairo 11511 Egypt"
2096384,Villa 55,30.01217,31.29192,45,4,al-muqattam,"{'street1': '9 55 Rd.', 'street2': 'Maadi', 'city': 'Cairo', 'state': None, 'country': 'Egypt', 'postalcode': '11511'}","9 55 Rd. Maadi, Cairo 11511 Egypt"
8152250,Sabai Sabai Thailand Restaurant,30.065393,31.216389000000003,32,4,Zamalek,"{'street1': '1 El Gazera El Wosta Street', 'street2': None, 'city': 'Cairo', 'state': None, 'country': 'Egypt', 'postalcode': '11511'}","1 El Gazera El Wosta Street, Cairo 11511 Egypt"
12412667,Stage One Lounge and Bar,30.065475,31.227812,20,4.5,al-qahirah al jadidah 2,"{'street1': '1191 Cornich El Nil', 'street2': None, 'city': 'Cairo', 'state': None, 'country': 'Egypt', 'postalcode': '11511'}","1191 Cornich El Nil, Cairo 11511 Egypt"
12820612,Paul,30.090208,31.32375,37,4,Heliopolis,"{'street1': '15 Baghdad Street, Korba', 'street2': 'Heliopolis', 'city': 'Cairo', 'state': None, 'country': 'Egypt', 'postalcode': '11511'}","15 Baghdad Street, Korba Heliopolis, Cairo 11511 Egypt"
13277057,Frank and Co,29.958126,31.269215000000003,14,4.5,maadi,"{'street1': '11 Road 18 Maadi Sarayat', 'street2': None, 'city': 'Cairo', 'state': None, 'country': 'Egypt', 'postalcode': '11728'}","11 Road 18 Maadi Sarayat, Cairo 11728 Egypt"
2730370,Koshary Hend,30.089340000000004,31.32235,20,4,Heliopolis,"{'street1': '5 El Thawra St.', 'street2': None, 'city': 'Cairo', 'state': None, 'country': 'Egypt', 'postalcode': '11511'}","5 El Thawra St., Cairo 11511 Egypt"
1392339,Pub 28,30.062778,31.219833,73,3.5,Zamalek,"{'street1': '28 Shagarat el Dor St', 'street2': '', 'city': 'Cairo', 'state': None, 'country': 'Egypt', 'postalcode': '11511'}","28 Shagarat el Dor St, Cairo 11511 Egypt"
6755015,Lord of the Wings,30.073265000000003,31.346077,40,4,Madinat Nasr 1 ,"{'street1': 'New Extension, City Stars Mall, Heliopolis', 'street2': None, 'city': 'Cairo', 'state': None, 'country': 'Egypt', 'postalcode': '12311'}","New Extension, City Stars Mall, Heliopolis, Cairo 12311 Egypt"
4167587,Harry's Pub,30.058125,31.224653000000004,29,4,Zamalek,"{'street1': '16 Saray El Gezira Street', 'street2': 'Cairo Marriott Hotel & Omar Khayyam Casino', 'city': 'Cairo', 'state': None, 'country': 'Egypt', 'postalcode': '11511'}","16 Saray El Gezira Street Cairo Marriott Hotel & Omar Khayyam Casino, Cairo 11511 Egypt"
1055108,Carve -zamalek,29.96903,31.26541,19,4.5,maadi,"{'street1': 'Taha hussien', 'street2': '', 'city': 'Cairo', 'state': None, 'country': 'Egypt', 'postalcode': '11511'}","Taha hussien, Cairo 11511 Egypt"
12885194,La Konka,30.109479999999998,31.381857,15,4.5,Madinat Nasr 1 ,"{'street1': 'Cairo Complex Mall, Ankara Street, Sheraton Heliopolis Area', 'street2': 'Ankara Street, Sheraton Heliopolis Area', 'city': 'Cairo', 'state': None, 'country': 'Egypt', 'postalcode': '11511'}","Cairo Complex Mall, Ankara Street, Sheraton Heliopolis Area Ankara Street, Sheraton Heliopolis Area, Cairo 11511 Egypt"
12257029,Ikea Restaurant,30.02957,31.40723,17,4,al-qahirah al jadidah,"{'street1': 'Cairo Festival City', 'street2': None, 'city': 'Cairo', 'state': None, 'country': 'Egypt', 'postalcode': '11511'}","Cairo Festival City, Cairo 11511 Egypt"
4167594,Vintage Bar & Lounge,30.074846,31.439438,48,4.5,al-qahirah al jadidah 2,"{'street1': 'Ring Road', 'street2': 'Renaissance Cairo Mirage City Hotel', 'city': 'Cairo', 'state': None, 'country': 'Egypt', 'postalcode': '11511'}","Ring Road Renaissance Cairo Mirage City Hotel, Cairo 11511 Egypt"
2727109,Tom & Basal,30.06873,31.27259,35,4,al-wayli,"{'street1': '8 Talaat Harb St. Beside Piraeus Bank Egypt - ATM', 'street2': None, 'city': 'Cairo', 'state': None, 'country': 'Egypt', 'postalcode': '11511'}","8 Talaat Harb St. Beside Piraeus Bank Egypt - ATM, Cairo 11511 Egypt"
2727418,Koshary El Tahrir,29.97255,31.270659999999996,20,4,Madinat Nasr 1 ,"{'street1': 'El Nasr St. In Front Of Cook Door', 'street2': None, 'city': 'Cairo', 'state': None, 'country': 'Egypt', 'postalcode': '11511'}","El Nasr St. In Front Of Cook Door, Cairo 11511 Egypt"
8036395,Anter El Kebabgy,30.02716,31.248920000000002,12,4.5,sayda zeinab,"{'street1': '4 Omar Toson Street', 'street2': None, 'city': 'Cairo', 'state': None, 'country': 'Egypt', 'postalcode': '11511'}","4 Omar Toson Street, Cairo 11511 Egypt"
816487,Cilantro,0.0,0.0,67,3.5,Madinat Nasr 1 ,"{'street1': 'Abbas el akad / Nasr City', 'street2': '', 'city': 'Cairo', 'state': None, 'country': 'Egypt', 'postalcode': '11511'}",
2727127,Paprika,30.052459999999996,31.230482000000002,30,4,bulaq,"{'street1': '1129 Kornich El Nile Maspiro', 'street2': '', 'city': 'Cairo', 'state': None, 'country': 'Egypt', 'postalcode': '11221'}","1129 Kornich El Nile Maspiro, Cairo 11221 Egypt"
16867122,Dubai House,30.08936,31.32142,13,4,Heliopolis,"{'street1': '4 El Thawra Street', 'street2': None, 'city': 'Cairo', 'state': None, 'country': 'Egypt', 'postalcode': '11511'}","4 El Thawra Street, Cairo 11511 Egypt"
1226739,Kandahar,0.0,0.0,46,4,el dooki,"{'street1': '3 Gamet El Dowal St', 'street2': '', 'city': 'Cairo', 'state': None, 'country': 'Egypt', 'postalcode': '11511'}","3 Gamet El Dowal St, Cairo 11511 Egypt"
13186878,Tamara lebanese Bistro,30.028187,31.409557,22,4,al-qahirah al jadidah,"{'street1': None, 'street2': 'Alexandria, Egypt', 'city': 'Cairo', 'state': None, 'country': 'Egypt', 'postalcode': None}","Alexandria, Egypt, Cairo Egypt"
3606687,Peking,29.9814,31.251959999999997,24,4,dar as-salam,"{'street1': '29 El Nasr St', 'street2': 'Maadi', 'city': 'Cairo', 'state': None, 'country': 'Egypt', 'postalcode': '11511'}","29 El Nasr St Maadi, Cairo 11511 Egypt"
2727623,Costa Coffee,30.091408,31.343536,47,4,Heliopolis,"{'street1': '16 El Merghany St. In Front Of Heliopolis Club', 'street2': None, 'city': 'Cairo', 'state': None, 'country': 'Egypt', 'postalcode': '11511'}","16 El Merghany St. In Front Of Heliopolis Club, Cairo 11511 Egypt"
16673706,Saki Sushi,30.10734,31.366459999999996,7,5,an-nuzhah,"{'street1': 'Uruba Street', 'street2': 'Heliopolis Towers', 'city': 'Cairo', 'state': None, 'country': 'Egypt', 'postalcode': '11511'}","Uruba Street Heliopolis Towers, Cairo 11511 Egypt"
7592907,Casper & Gambini,30.028859999999998,31.53782,27,4,al-qahirah al jadidah,"{'street1': '2 Gate', 'street2': 'Mall of Arabia', 'city': 'Cairo', 'state': None, 'country': 'Egypt', 'postalcode': '11511'}","2 Gate Mall of Arabia, Cairo 11511 Egypt"
13340539,Bosco Cafe and Restaurant,30.081882,31.343193,27,5,Madinat Nasr 1 ,"{'street1': 'El-Shaheed Mohammed Abd El-Hady', 'street2': 'Masaken Al Mohandesin, Nasr city', 'city': 'Cairo', 'state': None, 'country': 'Egypt', 'postalcode': '11511'}","El-Shaheed Mohammed Abd El-Hady Masaken Al Mohandesin, Nasr city, Cairo 11511 Egypt"
9854093,Rosto,30.144209999999998,31.25365,12,4.5,al zahar,"{'street1': '9 Street', 'street2': 'Mokattam', 'city': 'Cairo', 'state': None, 'country': 'Egypt', 'postalcode': '11511'}","9 Street Mokattam, Cairo 11511 Egypt"
2728490,Cleopatra Restaurant,29.96302,31.259909999999998,27,3.5,maadi,"{'street1': '153 12 Rd.', 'street2': None, 'city': 'Cairo', 'state': None, 'country': 'Egypt', 'postalcode': '11511'}","153 12 Rd., Cairo 11511 Egypt"
3607766,El Shabrawy,30.05006,31.250740000000004,27,4,al-muski,"{'street1': '2 Morgan St. El Ataba Sq.', 'street2': 'Ataba', 'city': 'Cairo', 'state': None, 'country': 'Egypt', 'postalcode': '11511'}","2 Morgan St. El Ataba Sq. Ataba, Cairo 11511 Egypt"
12827799,900 Degrees,30.012929999999997,31.233590000000003,17,4.5,Misr al qadima,"{'street1': '90 Street, 5th Settlement', 'street2': 'New Cairo', 'city': 'Cairo', 'state': None, 'country': 'Egypt', 'postalcode': '11511'}","90 Street, 5th Settlement New Cairo, Cairo 11511 Egypt"
2729046,El Prince Restaurant,0.0,0.0,10,4.5,qasr el nile,"{'street1': '2 A Elwey St. Off Kasar El Nil St.', 'street2': None, 'city': 'Cairo', 'state': None, 'country': 'Egypt', 'postalcode': '11511'}","2 A Elwey St. Off Kasar El Nil St., Cairo 11511 Egypt"
3606651,McDonald's,30.04437,31.237409999999997,32,3.5,abdin,"{'street1': '6 El Amir Qadadar St., Downtown', 'street2': '', 'city': 'Cairo', 'state': None, 'country': 'Egypt', 'postalcode': '11511'}","6 El Amir Qadadar St., Downtown, Cairo 11511 Egypt"
2727776,Petit Palmyra,30.092556,31.323414,15,4,Heliopolis,"{'street1': '27 El Ahram St. in Front Of Pizza Hut restaurant', 'street2': None, 'city': 'Cairo', 'state': None, 'country': 'Egypt', 'postalcode': '11511'}","27 El Ahram St. in Front Of Pizza Hut restaurant, Cairo 11511 Egypt"
816237,Roastery,30.08215,31.3376,39,4,Madinat Nasr 1 ,"{'street1': '5 Samir Mokhtar St.', 'street2': '', 'city': 'Cairo', 'state': None, 'country': 'Egypt', 'postalcode': '11511'}","5 Samir Mokhtar St., Cairo 11511 Egypt"
12072131,Vero Trattoria,30.054827000000003,31.492179999999998,10,4.5,al-qahirah al jadidah,"{'street1': 'Al Rehab, City Square', 'street2': None, 'city': 'Cairo', 'state': None, 'country': 'Egypt', 'postalcode': '11511'}","Al Rehab, City Square, Cairo 11511 Egypt"
16865933,Stereo Restaurant & Cafe,29.83413,31.35124,12,4,al-qahirah al jadidah,"{'street1': '20 Street 66, 5th Settlement', 'street2': 'New Cairo', 'city': 'Cairo', 'state': None, 'country': 'Egypt', 'postalcode': '11511'}","20 Street 66, 5th Settlement New Cairo, Cairo 11511 Egypt"
6404354,The Lemon Tree & Co,29.975040000000003,31.395909999999997,54,4,al-qahirah al jadidah 3,"{'street1': 'Katameya Heights Rd', 'street2': 'Katameya Heights Clubhouse', 'city': 'Cairo', 'state': None, 'country': 'Egypt', 'postalcode': '11511'}","Katameya Heights Rd Katameya Heights Clubhouse, Cairo 11511 Egypt"
1201482,Abou Shakra,30.084406,31.327370000000002,120,3.5,Madinat Nasr 1 ,"{'street1': '82 El-Sayid El-Merghany', 'street2': '', 'city': 'Cairo', 'state': None, 'country': 'Egypt', 'postalcode': '11511'}","82 El-Sayid El-Merghany, Cairo 11511 Egypt"
3695407,Chili's,30.06042,31.22137,20,4,Zamalek,"{'street1': 'Extension Of 26th of July Avenue', 'street2': 'Avenue 6th Of October', 'city': 'Cairo', 'state': None, 'country': 'Egypt', 'postalcode': '11511'}","Extension Of 26th of July Avenue Avenue 6th Of October, Cairo 11511 Egypt"
2726406,La Casetta,30.0586,31.328429999999997,14,4,Madinat Nasr 1 ,"{'street1': '13 Ismail El Qabbany St. Behind Genena Mall', 'street2': None, 'city': 'Cairo', 'state': None, 'country': 'Egypt', 'postalcode': '11511'}","13 Ismail El Qabbany St. Behind Genena Mall, Cairo 11511 Egypt"
1201422,Romano's Macaroni Grill,30.08853,31.32272,31,4,Heliopolis,"{'street1': 'City Stars', 'street2': '', 'city': 'Cairo', 'state': None, 'country': 'Egypt', 'postalcode': '11511'}","City Stars, Cairo 11511 Egypt"
10074233,The Edwards,30.028173,31.409042,29,4,al-qahirah al jadidah,"{'street1': 'Cairo Festival City', 'street2': None, 'city': 'Cairo', 'state': None, 'country': 'Egypt', 'postalcode': '11511'}","Cairo Festival City, Cairo 11511 Egypt"
3608962,El Shabrawy,30.040640000000003,31.25634,16,4,darb el ahmar,"{'street1': 'El Sannan St.', 'street2': None, 'city': 'Cairo', 'state': None, 'country': 'Egypt', 'postalcode': '11511'}","El Sannan St., Cairo 11511 Egypt"
4167582,Citron Restaurant,30.074747,31.439567999999998,12,4.5,al-qahirah al jadidah 2,"{'street1': 'Ring Road', 'street2': 'Renaissance Cairo Mirage City Hotel', 'city': 'Cairo', 'state': None, 'country': 'Egypt', 'postalcode': '11511'}","Ring Road Renaissance Cairo Mirage City Hotel, Cairo 11511 Egypt"
15757757,Zooba,30.072996000000003,31.344355,8,4.5,Madinat Nasr 1 ,"{'street1': 'City Stars Mall', 'street2': 'Heliopolis', 'city': 'Cairo', 'state': None, 'country': 'Egypt', 'postalcode': '11511'}","City Stars Mall Heliopolis, Cairo 11511 Egypt"
1223726,Mori Sushi,30.09474,31.266990000000003,17,4,az-zawiyah al-hamra,"{'street1': 'Aruba St.', 'street2': '', 'city': 'Cairo', 'state': None, 'country': 'Egypt', 'postalcode': '11511'}","Aruba St., Cairo 11511 Egypt"
7126021,Akala Blended Cuisine,30.06945,31.344659999999998,30,4.5,Madinat Nasr 1 ,"{'street1': 'El Nasr Road', 'street2': 'Heliopolis', 'city': 'Cairo', 'state': None, 'country': 'Egypt', 'postalcode': '11511'}","El Nasr Road Heliopolis, Cairo 11511 Egypt"
3418985,Abu Shakra,29.97255,31.240209999999998,44,3.5,dar as-salam,"{'street1': 'Street Merghani', 'street2': None, 'city': 'Cairo', 'state': None, 'country': 'Egypt', 'postalcode': '11511'}","Street Merghani, Cairo 11511 Egypt"
9818989,Taboon Urban Lebanese Restaurant,30.062867999999998,31.221352000000003,19,4,Zamalek,"{'street1': '5 Abou El Feda St, Om Kalthoum Hotel, Zamalek', 'street2': 'Open 24 hours', 'city': 'Cairo', 'state': None, 'country': 'Egypt', 'postalcode': '11511'}","5 Abou El Feda St, Om Kalthoum Hotel, Zamalek Open 24 hours, Cairo 11511 Egypt"
10348124,Zack's Bakery Cafe,30.09713,31.307409999999997,9,4.5,az-zaytun,"{'street1': '1 Al Rehab Mall', 'street2': 'Basement Floor', 'city': 'Cairo', 'state': None, 'country': 'Egypt', 'postalcode': '11511'}","1 Al Rehab Mall Basement Floor, Cairo 11511 Egypt"
6158383,Andrea Memphis Restaurant,29.985117,31.229408000000003,138,3.5,Misr al qadima,"{'street1': 'Corniche El-Nil Street', 'street2': 'Maadi', 'city': 'Cairo', 'state': None, 'country': 'Egypt', 'postalcode': '11511'}","Corniche El-Nil Street Maadi, Cairo 11511 Egypt"
2727962,Hana,30.061493,31.22215,31,4,Zamalek,"{'street1': '25 Hassan Assem St. Off Brazil St. Near To The Egyptian Co. For Mobile Services - Mobinil', 'street2': None, 'city': 'Cairo', 'state': None, 'country': 'Egypt', 'postalcode': '11511'}","25 Hassan Assem St. Off Brazil St. Near To The Egyptian Co. For Mobile Services - Mobinil, Cairo 11511 Egypt"
14446057,El Torr,30.13733,31.277720000000002,9,4.5,el dooki,"{'street1': '1 Gameat El Dowal El Arabeya', 'street2': 'Al Mohandessin', 'city': 'Cairo', 'state': None, 'country': 'Egypt', 'postalcode': '11511'}","1 Gameat El Dowal El Arabeya Al Mohandessin, Cairo 11511 Egypt"
4581375,Abou Aouf restaurant,30.10789,31.37329,14,4.5,an-nuzhah,"{'street1': '65 Abdel Hamid Badawey Street', 'street2': 'Heliopolis', 'city': 'Cairo', 'state': None, 'country': 'Egypt', 'postalcode': '11511'}","65 Abdel Hamid Badawey Street Heliopolis, Cairo 11511 Egypt"
2727071,Happy Dolphin,29.968021000000004,31.25716,24,4,maadi,"{'street1': '70 Abdel Aziz Al Saud St. Beside Nile Lily Boat', 'street2': None, 'city': 'Cairo', 'state': None, 'country': 'Egypt', 'postalcode': '11511'}","70 Abdel Aziz Al Saud St. Beside Nile Lily Boat, Cairo 11511 Egypt"
10481265,Fuego,30.06355,31.328135999999997,13,4.5,Madinat Nasr 1 ,"{'street1': '35 Abou El Feda st', 'street2': 'Zamalek', 'city': 'Cairo', 'state': None, 'country': 'Egypt', 'postalcode': '11511'}","35 Abou El Feda st Zamalek, Cairo 11511 Egypt"
2730712,Bahary Fish,29.97543,31.27986,11,4.5,al-qahirah al jadidah,"{'street1': '62 El Nasr St.', 'street2': None, 'city': 'Cairo', 'state': None, 'country': 'Egypt', 'postalcode': '11511'}","62 El Nasr St., Cairo 11511 Egypt"
11698899,Plateau,30.072042,31.434246,17,4,al-qahirah al jadidah 2,"{'street1': 'Ring Road', 'street2': None, 'city': 'Cairo', 'state': None, 'country': 'Egypt', 'postalcode': '11757'}","Ring Road, Cairo 11757 Egypt"
950593,Carino's Italian Grill,30.08853,31.32272,28,4,Heliopolis,"{'street1': 'Nile City', 'street2': '', 'city': 'Cairo', 'state': None, 'country': 'Egypt', 'postalcode': '11511'}","Nile City, Cairo 11511 Egypt"
2727907,La Poire,30.046373,31.235066999999997,12,4,qasr el nile,"{'street1': '36 Abou Bakr El Seddik St. Near To Arab African International Bank - Aaib', 'street2': None, 'city': 'Cairo', 'state': None, 'country': 'Egypt', 'postalcode': '11511'}","36 Abou Bakr El Seddik St. Near To Arab African International Bank - Aaib, Cairo 11511 Egypt"
8072869,Steak Out,30.065329,31.488249,20,4,al-qahirah al jadidah 2,"{'street1': 'City Square Mall', 'street2': 'Beside gate 6', 'city': 'Cairo', 'state': None, 'country': 'Egypt', 'postalcode': '11511'}","City Square Mall Beside gate 6, Cairo 11511 Egypt"
4550840,Fuddruckers,30.073334000000003,31.346584000000004,42,4,Madinat Nasr 1 ,"{'street1': 'City stars', 'street2': None, 'city': 'Cairo', 'state': None, 'country': 'Egypt', 'postalcode': '11511'}","City stars, Cairo 11511 Egypt"
10813824,The Courtyard Maadi,29.972759999999997,32.51128,9,4.5,maadi,"{'street1': 'Palestine Road', 'street2': 'El-Basatin Sharkeya, New Maadi', 'city': 'Cairo', 'state': None, 'country': 'Egypt', 'postalcode': '11511'}","Palestine Road El-Basatin Sharkeya, New Maadi, Cairo 11511 Egypt"
6518551,Strada,30.024221,31.2176,15,4.5,el giza,"{'street1': 'Charle de Gaule', 'street2': None, 'city': 'Cairo', 'state': None, 'country': 'Egypt', 'postalcode': '11511'}","Charle de Gaule, Cairo 11511 Egypt"
1054768,Studio Misr,30.088279999999997,31.323159999999998,52,3.5,Heliopolis,"{'street1': '9 Sh Alnahru', 'street2': 'Nile City', 'city': 'Cairo', 'state': None, 'country': 'Egypt', 'postalcode': '11432'}","9 Sh Alnahru Nile City, Cairo 11432 Egypt"
9732480,Al Borj,30.063109999999998,31.32569,9,4.5,Madinat Nasr 1 ,"{'street1': 'Al Tayaran St.', 'street2': None, 'city': 'Cairo', 'state': None, 'country': 'Egypt', 'postalcode': '11511'}","Al Tayaran St., Cairo 11511 Egypt"
1599542,El Mundo Dinner Nile Cruise,30.122659999999996,31.3719,19,5,an-nuzhah,"{'street1': '70 Abd El Aziz Al Soued St.', 'street2': 'Manial', 'city': 'Cairo', 'state': None, 'country': 'Egypt', 'postalcode': '10473'}","70 Abd El Aziz Al Soued St. Manial, Cairo 10473 Egypt"
19258637,Bullona,30.03605,31.229490000000002,6,4.5,qasr el nile,"{'street1': '1089 Corniche El Nil', 'street2': 'Garden City', 'city': 'Cairo', 'state': None, 'country': 'Egypt', 'postalcode': '11519'}","1089 Corniche El Nil Garden City, Cairo 11519 Egypt"
1084748,cook door,30.086370000000002,31.245409999999996,42,4,al sahl,"{'street1': 'Shoubra Street', 'street2': '', 'city': 'Cairo', 'state': None, 'country': 'Egypt', 'postalcode': '11511'}","Shoubra Street, Cairo 11511 Egypt"
2729485,Kababgy El Azhar Farahat,30.134420000000002,31.32606,12,4.5,Heliopolis,"{'street1': '27 A El Hegaz St.', 'street2': None, 'city': 'Cairo', 'state': None, 'country': 'Egypt', 'postalcode': '11511'}","27 A El Hegaz St., Cairo 11511 Egypt"
2728836,Hosny Farahat Restaurants,30.044601,31.23845,11,4,abdin,"{'street1': '163 El Tahrir St.', 'street2': None, 'city': 'Cairo', 'state': None, 'country': 'Egypt', 'postalcode': '11511'}","163 El Tahrir St., Cairo 11511 Egypt"
3966988,Tres Bon,30.130740000000003,31.353659999999998,10,4.5,ain shams,"{'street1': '74 Omar Ibn El Khattab', 'street2': 'Tivoli Dome Food Court', 'city': 'Cairo', 'state': None, 'country': 'Egypt', 'postalcode': '11511'}","74 Omar Ibn El Khattab Tivoli Dome Food Court, Cairo 11511 Egypt"
938780,Spectra,30.11334,31.712059999999997,87,3.5,Madinat Badr,"{'street1': 'Road 18, Maadi', 'street2': '', 'city': 'Cairo', 'state': None, 'country': 'Egypt', 'postalcode': '11511'}","Road 18, Maadi, Cairo 11511 Egypt"
10269309,Bubblicious,30.065174,31.217254999999998,6,5,Zamalek,"{'street1': '6A Ismail Mohamed St.', 'street2': 'Zamalek', 'city': 'Cairo', 'state': None, 'country': 'Egypt', 'postalcode': '11511'}","6A Ismail Mohamed St. Zamalek, Cairo 11511 Egypt"
866254,Charwood's,30.049359999999997,31.1982,43,4,el dooki,"{'street1': 'Gamet El dowal, Mohandessin', 'street2': 'After Gad & Shehab Street', 'city': 'Cairo', 'state': None, 'country': 'Egypt', 'postalcode': '11511'}","Gamet El dowal, Mohandessin After Gad & Shehab Street, Cairo 11511 Egypt"
2433425,Vittorio's Restaurant,0.0,0.0,22,4,maadi,"{'street1': '231 19 Road', 'street2': 'Degla, Maadi', 'city': 'Cairo', 'state': None, 'country': 'Egypt', 'postalcode': '11511'}","231 19 Road Degla, Maadi, Cairo 11511 Egypt"
1791052,The Karvin Hotel,30.133390000000002,31.318720000000003,27,4,al-marj,"{'street1': '11 Mohmed Ebeid Street', 'street2': 'Heliopolis', 'city': 'Cairo', 'state': None, 'country': 'Egypt', 'postalcode': '11511'}","11 Mohmed Ebeid Street Heliopolis, Cairo 11511 Egypt"
3987860,Sufi Bookstore,30.15407,31.34348,12,4.5,al-marj,"{'street1': '12 Sayed Bakry Street', 'street2': 'Zamalek', 'city': 'Cairo', 'state': None, 'country': 'Egypt', 'postalcode': '11511'}","12 Sayed Bakry Street Zamalek, Cairo 11511 Egypt"
2727456,Orangette Cafe & Dining,30.053198,31.21864,12,4.5,Zamalek,"{'street1': '2 Hassan Sabry St. In Front Of El Gezirah Sporting Club', 'street2': None, 'city': 'Cairo', 'state': None, 'country': 'Egypt', 'postalcode': '11511'}","2 Hassan Sabry St. In Front Of El Gezirah Sporting Club, Cairo 11511 Egypt"
14953580,Oliveto,30.028909999999996,31.40768,12,4.5,al-qahirah al jadidah,"{'street1': 'Cairo Festival City Mall, 5th Settlement', 'street2': None, 'city': 'Cairo', 'state': None, 'country': 'Egypt', 'postalcode': '11511'}","Cairo Festival City Mall, 5th Settlement, Cairo 11511 Egypt"
16844138,Clams and Claws,30.255509999999997,31.478270000000002,9,4.5,al-qahirah al jadidah,"{'street1': '2 Street 26, District 2 , Zone', 'street2': '5th Settlement,', 'city': 'Cairo', 'state': None, 'country': 'Egypt', 'postalcode': '11511'}","2 Street 26, District 2 , Zone 5th Settlement,, Cairo 11511 Egypt"
2333674,Cafe Riche,30.047109999999996,31.238249,262,3.5,abdin,"{'street1': '17 Talaat Harb St', 'street2': 'Downtown', 'city': 'Cairo', 'state': None, 'country': 'Egypt', 'postalcode': '11511'}","17 Talaat Harb St Downtown, Cairo 11511 Egypt"
13406219,RalphâS German Bakery,0.0,0.0,15,4,maadi,"{'street1': None, 'street2': None, 'city': 'Cairo', 'state': None, 'country': 'Egypt', 'postalcode': None}",Cairo Egypt
17631923,Sapori di Carlo,30.07181,31.22203,6,4.5,Zamalek,"{'street1': '49 Mohammed Mazhar', 'street2': None, 'city': 'Cairo', 'state': None, 'country': 'Egypt', 'postalcode': '11511'}","49 Mohammed Mazhar, Cairo 11511 Egypt"
2730557,Cook Door,30.071990000000003,31.22172,17,4,Zamalek,"{'street1': '56 B Mohamed Mazhar St.', 'street2': None, 'city': 'Cairo', 'state': None, 'country': 'Egypt', 'postalcode': '11511'}","56 B Mohamed Mazhar St., Cairo 11511 Egypt"
19510691,Thawq Coffee House,30.086927000000003,31.341990000000003,5,5,Heliopolis,"{'street1': '6 Abd El-Moneim Ismail', 'street2': 'Almazah', 'city': 'Cairo', 'state': None, 'country': 'Egypt', 'postalcode': '11511'}","6 Abd El-Moneim Ismail Almazah, Cairo 11511 Egypt"
3696460,Friday's,0.0,0.0,17,4,maadi,"{'street1': 'Corniche El Nil', 'street2': None, 'city': 'Cairo', 'state': None, 'country': 'Egypt', 'postalcode': '11511'}","Corniche El Nil, Cairo 11511 Egypt"
1100208,gandofly,30.11225,31.31482,21,4,az-zaytun,"{'street1': 'Al Nasr St. Maadi', 'street2': '', 'city': 'Cairo', 'state': None, 'country': 'Egypt', 'postalcode': '11511'}","Al Nasr St. Maadi, Cairo 11511 Egypt"
2534451,Cuba Cabana Restaurant,29.9562,31.260009999999998,30,4,maadi,"{'street1': '7 28 Road', 'street2': 'Maadi', 'city': 'Cairo', 'state': None, 'country': 'Egypt', 'postalcode': '11511'}","7 28 Road Maadi, Cairo 11511 Egypt"
805608,la casetta,29.99285,31.282120000000003,50,4,al-muqattam,"{'street1': '11 Road 18, Egypt', 'street2': '', 'city': 'Cairo', 'state': None, 'country': 'Egypt', 'postalcode': '11511'}","11 Road 18, Egypt, Cairo 11511 Egypt"
3608983,Cortigiano,30.082690000000003,31.336440000000003,41,3.5,Madinat Nasr 1 ,"{'street1': '14 Samir Mokhtar St', 'street2': 'Off Nabil El Waqqad St. Heliopolis', 'city': 'Cairo', 'state': None, 'country': 'Egypt', 'postalcode': '11511'}","14 Samir Mokhtar St Off Nabil El Waqqad St. Heliopolis, Cairo 11511 Egypt"
4064814,Studio Misr Al-Azhar Park,30.042274,31.266091999999997,53,3.5,darb el ahmar,"{'street1': 'Salah Salam', 'street2': 'Al-Azhar Park', 'city': 'Cairo', 'state': None, 'country': 'Egypt', 'postalcode': '11511'}","Salah Salam Al-Azhar Park, Cairo 11511 Egypt"
3606452,Kastan,30.061108,31.352375,8,4.5,Madinat Nasr 1 ,"{'street1': 'Corniche El Nil', 'street2': None, 'city': 'Cairo', 'state': None, 'country': 'Egypt', 'postalcode': '11511'}","Corniche El Nil, Cairo 11511 Egypt"
12131140,Mobistro,30.08046,31.26166,18,4,al sharbya,"{'street1': '14 Aswan Square', 'street2': 'Mohandeseen', 'city': 'Cairo', 'state': None, 'country': 'Egypt', 'postalcode': '11511'}","14 Aswan Square Mohandeseen, Cairo 11511 Egypt"
1100767,Trainon Al-Azhar Park,29.967670000000002,31.260859999999997,16,4.5,darb el ahmar,"{'street1': 'Salah Salim street', 'street2': '', 'city': 'Cairo', 'state': None, 'country': 'Egypt', 'postalcode': '11511'}","Salah Salim street, Cairo 11511 Egypt"
10374116,Lemongrass,30.071984999999998,31.434305,16,4,al-qahirah al jadidah 2,"{'street1': 'First Floor, JW Marriott Hotel', 'street2': 'Ring Road', 'city': 'Cairo', 'state': None, 'country': 'Egypt', 'postalcode': '11511'}","First Floor, JW Marriott Hotel Ring Road, Cairo 11511 Egypt"
1069056,Koshary Sayed Hanafy,30.050179999999997,31.37967,13,4.5,Madinat Nasr 1 ,"{'street1': '5 El Araby Square', 'street2': 'El Tawfeeqia', 'city': 'Cairo', 'state': None, 'country': 'Egypt', 'postalcode': '11511'}","5 El Araby Square El Tawfeeqia, Cairo 11511 Egypt"
3605983,Blackstone Bistro,30.06655,31.220259999999996,20,4,Zamalek,"{'street1': '22 Taha Hussein St. Beside Zamalek Residence Cairo Hotel', 'street2': None, 'city': 'Cairo', 'state': None, 'country': 'Egypt', 'postalcode': '11511'}","22 Taha Hussein St. Beside Zamalek Residence Cairo Hotel, Cairo 11511 Egypt"
